category,name,name_ar,description,description_ar,address,zip,city,region,country_code,email,phone,web,lat,lon,Image folder Number(unique),Image 1,Image 2,Image 3
Arts & Entertainment,Game Zone,,,,"Serafi Mega Mall, Tahlia Street | Redsea Mall, King's Road",21563,Jeddah,Al-Qassim ,SA,,,,26.2929636,50.1852735,1,1.jpg,2.jpg,3.jpg
Arts & Entertainment,Tokyo Games,,,,Al Ulaya,34448,Khobar,Al-Qassim ,SA,"info@tokyogames.com
",966 13 899 2823,tokyogames.com,26.2929629,50.1808961,2,1.jpg,2.jpg,3.jpg
Arts & Entertainment,Change Actions Consulting,,,,Al Bandariyah,34424,Khobar,Al-Qassim ,SA,info@changeactions.com​,966 13 330 8578,changeactions.com,26.3088274,50.2094591,3,1.jpg,2.jpg,3.jpg
Arts & Entertainment,Adawliah Music Store,,,,Al Khobar Al Shamalia,34429,Al Khobar,Al-Qassim ,SA,,966 56 296 9548,,26.3122393,50.0495558,4,1.jpg,2.jpg,3.jpg
Arts & Entertainment,ADAWLIAH YAMAHA CENTER,,,,King Khaled Street,34427, Al Shamalia,Al Khobar,SA,,966 13 898 2692,,26.3127187,50.0495548,5,1.jpg,2.jpg,3.jpg
Arts & Entertainment,أنغام الخليج للأدوات الموسيقية,,,,Thuqbah,34623 7955,,Saudi,SA,,966 50 725 1053,,26.3127187,50.0495548,6,1.jpg,2.jpg,3.jpg
Arts & Entertainment,الدولية,,,,Al Ulaya,34446 2218,,Saudi,SA,,966 13 895 4703,adawliah.com,26.3127187,50.0495548,7,1.jpg,2.jpg,3.jpg
Arts & Entertainment,International Company for electronic devices,,,,Prince Abdulelah St,13456,Al Khobar,Saudi,SA,,966 13 864 3601,adawliah.com,26.3127187,50.0495548,8,1.jpg,2.jpg,3.jpg
Arts & Entertainment,The World of Art,,,,Prince Sultan St,34428,,Saudi,SA,,966 13 867 0461,,26.3127187,50.0495548,9,1.jpg,2.jpg,3.jpg
Arts & Entertainment,Virgin Megastore,,,,Az Zahran 34457,34457,Az Zahran,Saudi,SA,,966 13 868 6791,virginmegastore.com.sa,26.3114876,50.0495551,10,1.jpg,2.jpg,3.jpg
Arts & Entertainment,Spectrum Wellness for Women,,,,7984 Firas Ibn Al Nudur St,34447,Al Ulaya,Saudi,SA,,966 55 266 1480,spectrum4women.com,26.2978594,50.1766363,11,1.jpg,2.jpg,3.jpg
Arts & Entertainment,Studio55 Alkhobar,,,,Jamaluddin Al Afghani St,34447,Al Ulaya,Saudi,SA,,966 13 834 0201,fitstudio55.com,26.3079908,50.1687184,12,1.jpg,2.jpg,3.jpg
Arts & Entertainment,Mind Merge Training Center Al Khobar,,,, King Faisal Road,34423, Al Yarmouk,Saudi,SA,info@gomindmerge.com,966 13 896 1700,gomindmerge.com,26.2980091,50.1766363,13,1.jpg,2.jpg,3.jpg
Arts & Entertainment,Fit Club ladies,,,,Custodian of The Two Holy Mosques Rd Custodian of The Two Holy Mosques Rd,34623 8881,Al Ulaya,Saudi,SA,,966 59 331 6060,fitclub-ksa.com,26.2980839,50.1766363,14,1.jpg,2.jpg,3.jpg
Arts & Entertainment,Yamaha Center Al Khobar,,,,Al Khobar Al Shamalia,34429,Al Shamalia,Saudi,SA,,,,26.2980796,50.178936,15,1.jpg,2.jpg,3.jpg
Arts & Entertainment,British International School Of Al Khobar,,,,Al Jawharah,34434,Al Khobar,Saudi,SA,receptionist@bisak.org,966 13 882 5425,bisak.org,26.3353955,50.0827311,16,1.jpg,2.jpg,3.jpg
Arts & Entertainment,International Programs School,,,,Prince Sultan Road,34236,Qurtoba,Saudi,SA,,966 13 857 5603,ipsksa.com,26.3367638,50.0827298,17,1.jpg,2.jpg,3.jpg
Arts & Entertainment,International Programs School - New Campus,,,,"Qurtoba, Al Khobar",34236 6547,,Saudi,SA,,966 13 857 5603,ipsksa.com,26.3364901,50.0827301,18,1.jpg,2.jpg,3.jpg
Arts & Entertainment,عمارة العليا / شركة سراي للتطوير,,,,7875 قاسم بن عبدالله، Al Ulaya,34447,Al Ulaya,Saudi,SA,info@sarai.com,966 50 281 8700,sarai.com.sa,26.3362165,50.0827303,19,1.jpg,2.jpg,3.jpg
Arts & Entertainment,Pakistan International School Al Khobar for Girls,,,,Al Khobar Al Shamalia,34426,Al Khobar Al Shamalia,Saudi,SA,,966 13 867 1777,piskhobar.com,26.3373111,50.0827293,20,1.jpg,2.jpg,3.jpg
Arts & Entertainment,Scitech IMAX Cinema,,,,Corniche Rd Corniche Rd,34412 3618,Corniche,Saudi,SA,info@scitech.edu.sa,966 13 896 7777,scitech.com.sa,26.3047597,50.1850715,21,1.jpg,2.jpg,3.jpg
Arts & Entertainment,whitelens | وايتلنز,,,, Ar Rakah Al Janubiyah,34226,Al Rashid Towers,Saudi,SA,,966 13 824 9957,wl.sa,26.3048345,50.1850715,22,1.jpg,2.jpg,3.jpg
Arts & Entertainment,Party Land,,,,King Khaled Street,34425,Al Shamalia,Saudi,SA,party.w.partyland@gmail.com,966 13 867 0749,,26.3025939,50.1818937,23,1.jpg,2.jpg,3.jpg
Arts & Entertainment,Theme Party,,,, Al Khobar Al Shamalia,34427,Al Shamalia,Saudi,SA,,966 53 629 6482,,26.3026687,50.1818937,24,1.jpg,2.jpg,3.jpg
Arts & Entertainment,Why grow up,,,,"Al Bandariyah,",34423,Al Khobar Al Shamalia,Saudi,SA,rolayassine2000@yahoo.com,966 50 217 5781,whygrowup.us,26.3027435,50.1818936,25,1.jpg,2.jpg,3.jpg
Arts & Entertainment,De Party,,,,7443 22nd Street,34445,Al Aqrabiyah,Saudi,SA,,,,26.2983293,50.1849156,26,1.jpg,2.jpg,3.jpg
Arts & Entertainment,My Party,,,,Al Khobar Al Shamalia,34445,Al Khobar Saudi,Saudi,SA,,966 55 009 6396,,26.2983293,50.1849156,27,1.jpg,2.jpg,3.jpg
Arts & Entertainment,Fun City Saudi Arabia,,,,Al Jisr,34714,Al Khobar Al Shamalia,Saudi,SA,info@funcity.ae,971 4 501 4699,funcity.ae,26.2983112,50.1323842,28,1.jpg,2.jpg,3.jpg
Arts & Entertainment,Skyzone,,,,Ash Shati Ash Sharqi,32414,Dammam,Saudi,SA,,966 59 660 1661,alhokair.com,26.2982772,50.132384,29,1.jpg,2.jpg,3.jpg
Arts & Entertainment,Toy Town,,,,Fouad Center,34414 32413,Corniche Road,Saudi,SA,contact@toytown.com.sa,966 13 865 1555,toytown.com.sa,26.2988248,50.1323835,30,1.jpg,2.jpg,3.jpg
Arts & Entertainment,Chuck E. Cheese's,,,,Ar Rusayfah,24232,Makkah,Saudi,SA,,966 13 892 0225,chuckecheese.com.sa,26.2990986,50.1323832,31,1.jpg,2.jpg,3.jpg
Arts & Entertainment,Sparky's,,,,Doha Al Janubiyah,34457,Al Khobar Al Shamalia,Saudi,SA,,,,26.2993724,50.132383,32,1.jpg,2.jpg,3.jpg
Arts & Entertainment,فن سيتي,,,,اوساس مول، حي الجسر، Al Jisr,34714,Al Khobar Al Shamalia,Saudi,SA,info@funcity.ae,966 56713093,funcity.ae,26.2058906,50.1631273,33,1.jpg,2.jpg,3.jpg
Arts & Entertainment,Vegas Family Entertainment Center,,,,10 Portland St,34714,Saint John,Saudi,SA,,"1 506-674-5289
",vegasfec.com,45.2749924,66.1081343,34,1.jpg,2.jpg,3.jpg
Arts & Entertainment,National Bookstore,,,,Al Khobar Al Shamalia,34429,Al Khobar Al Shamalia,Saudi,SA,,,,26.1989465,49.8837621,35,1.jpg,2.jpg,3.jpg
Arts & Entertainment,Sindibad | سندباد,,,,7912 King Abdulaziz Rd,34441,Madinat Al Umal,Saudi,SA,Study@Sindibad-sa.com,966 13 893 5264,sindibad-sa.com,26.3080492,50.2079607,36,1.jpg,2.jpg,3.jpg
Arts & Entertainment,Seasons Daycare Al Khobar,,,,"Corniche, Al Shablan Compound","34412

",Al Khobar Al Shamalia,Saudi,SA,Alkhobar@SeasonsDaycare.com,966 13 894 1069,seasonsdaycare.com,26.3080871,50.2079607,37,1.jpg,2.jpg,3.jpg
Arts & Entertainment,Samsung & Terim,,,,3109 King Khaled Street,34429,Al Khobar Al Shamalia,Saudi,SA,webmaster@umg.com.sa,966 13 889 8456,umg.com.sa,26.2812668,50.2111838,38,1.jpg,2.jpg,3.jpg
Arts & Entertainment,Pezzo SkyZone - Trampoline Park,,,,Ahmed Ibn Hanbal St,34235,Qurtoba,Saudi,SA,,966 56 890 7718,,26.1988786,50.0238807,39,1.jpg,2.jpg,3.jpg
Arts & Entertainment,Gymboree Play & Learn,,,,King Fahd Road,34433,Al Hizam,Saudi,SA,,966 13 887 3830,gymboreeclasses-ksa.com,26.1993591,50.0238797,40,1.jpg,2.jpg,3.jpg
Arts & Entertainment,Desert Designs,,,,3616 Custodian of The Two Holy Mosques Rd,34446,Aqrabiyah,Saudi,SA,esales@desertdesigns.com,966 13 889 4747,desertdesigns.com,26.1998396,50.0238787,41,1.jpg,2.jpg,3.jpg
Arts & Entertainment,BABYBOX,,,,Al Khobar Al Shamalia,34426,King Abdulaziz st,Saudi,SA,info@babybox.tv,966 50 127 1111,babybox.tv,26.20032,50.0238777,42,1.jpg,2.jpg,3.jpg
Arts & Entertainment,Eram Galleria,,,,King Faisal Road,34226,Al Khobar Al Shamalia,Saudi,SA,infogalleria@gmail.com,966 13 808 6897,eramgalleria.com,26.1996361,49.8837581,43,1.jpg,2.jpg,3.jpg
Arts & Entertainment,OSN,,,,Al Khobar Al Shamalia,34429,Al Khobar Al Shamalia,Saudi,SA,,966 13 899 5875,,26.1996361,49.8837581,44,1.jpg,2.jpg,3.jpg
Arts & Entertainment,Media Tech,,,,4889 Custodian of The Two Holy Mosques Rd,34621,Al Khobar Al Shamalia,Saudi,SA,,966 56 341 4140,,26.1996361,49.8837581,45,1.jpg,2.jpg,3.jpg
Arts & Entertainment,Funoon Media,,,,5293 Cooperative Council Road, 34721 8164,Al Khobar Al Shamalia,Saudi,SA,,,orangemedia.me,26.2585717,49.9218701,46,1.jpg,2.jpg,3.jpg
Arts & Entertainment,ماكس ميديا(stc) max media,,,,Qurtoba,34235,Al Khobar Al Shamalia,Saudi,SA,info@maxmda.com,966 92 001 5111,maxmedia.com.sa,26.1996361,49.8837581,47,1.jpg,2.jpg,3.jpg
Arts & Entertainment,PRESTIGE MEDIA AND ADVERTISING AGENCY,,,, Al Taawun,34632,Al Khobar Al Shamalia,Saudi,SA,,966 13 865 1117,prestigeadv.net,26.1996361,49.8837581,48,1.jpg,2.jpg,3.jpg
Arts & Entertainment,Miraj Graphics W.L.L,,,,Road No 2506,386,Bahrain,Saudi,SA,info@mirajmedia.com,973 3992 2008,mirajmedia.com,26.1996361,49.8837581,49,1.jpg,2.jpg,3.jpg
Arts & Entertainment,DesignPlus Media Est,,,,2117 Al Amir Turki,6455,Corniche,Saudi,SA,,966 13 896 9300,designplus-sa.com,26.1996361,49.8837581,50,1.jpg,2.jpg,3.jpg
Arts & Entertainment,Mujahid bin razeen media unit,,,,Qurtoba,34235,Al Khobar Al Shamalia,Saudi,SA,,966 58 137 7433,,26.1996361,49.8837581,51,1.jpg,2.jpg,3.jpg
Arts & Entertainment,‪media legends,,,,Al Khobar Al Shamalia,34425,Al Khobar Al Shamalia,Saudi,SA,,966 55 222 4341,goo.gl,26.1996361,49.8837581,52,1.jpg,2.jpg,3.jpg
Arts & Entertainment,Ghali Arts Wedding & Events Planning,,,,Al Khobar Al Shamalia,34426,Al Shamalia,Saudi,SA,,966 13 867 2000,,26.3042631,50.1317533,53,1.jpg,2.jpg,3.jpg
Arts & Entertainment,Khobar Vibes,,,,"Al Khour, Unnamed Road",34614,Al Khobar Al Shamalia,Saudi,SA,,966 55 482 6662,thenme.org,26.3045369,50.1317531,54,1.jpg,2.jpg,3.jpg
Arts & Entertainment,Coral Al Khobar Hotel,,,,King Abdullah Street,34623,Thuqbah,Saudi,SA,central.reservations@hmhhotelgroup.com,966 13 869 6666,hmhhotelgroup.com,26.3050845,50.1317526,55,1.jpg,2.jpg,3.jpg
Arts & Entertainment,Theme Events,,,,King Abdulaziz Rd,34442,Madinat Al Umal,Saudi,SA,,966 13 895 4545,,26.3053582,50.1317523,56,1.jpg,2.jpg,3.jpg
Arts & Entertainment,Mövenpick Hotel Al Khobar,,,,Prince Turkey Street,34422,Near Corniche,Saudi,SA,,966 13 898 4999,movenpick.com,26.3059058,50.1317518,57,1.jpg,2.jpg,3.jpg
Arts & Entertainment,Crowne Plaza Al Khobar,,,,Custodian of The Two Holy Mosques Road,34623,Thuqbah,Saudi,SA,,966 13 898 8840,crowneplaza.com,26.3061795,50.1317516,58,1.jpg,2.jpg,3.jpg
Arts & Entertainment,Holiday Inn Al Khobar,,,,King Saud Rd,34423,Al Yarmouk,Saudi,SA,,966 13 858 8000,ihg.com,26.3153495,50.2158808,59,1.jpg,2.jpg,3.jpg
Arts & Entertainment,Holiday Inn Al Khobar - Corniche,,,,"King Abdulaziz St, King Faisal Bin",34429,King Faisal Bin,Saudi,SA,,966 13 867 1111,ihg.com,26.3153495,50.2158808,60,1.jpg,2.jpg,3.jpg
Arts & Entertainment,Hilton Garden Inn Al Khobar,,,, King Saud Rd، Al Ulaya,34447,Al Khobar Al Shamalia,Saudi,SA,,966 9200 20064,hiltongardeninn3.hilton.com,26.2947063,50.1569771,61,1.jpg,2.jpg,3.jpg
Arts & Entertainment,Milan Deluxe Suites,,,,King Abdullah Bin Abdul Aziz Road,34446,Al aqrabiyah,Saudi,SA,,966 13 869 8888,,26.2949972,50.156977,62,1.jpg,2.jpg,3.jpg
Arts & Entertainment,Seef Hall,,,,Al Khobar,34414,Al Khobar Al Shamalia,Saudi,SA,,966 13 864 3111,seefcenter.net,26.2949972,50.156977,63,1.jpg,2.jpg,3.jpg
Arts & Entertainment,Golden Tulip,,,,"Al-Baghdadiyah Al-Sharqiyah, 60 Street, Old Airport Road",22241,Jeddah ,Saudi,SA,gm@goldentulipalkhobar.com,966 13 889 3222,goldentulipalkhobar.com,26.2949972,50.156977,64,1.jpg,2.jpg,3.jpg
Arts & Entertainment,Ronza Rose Sea View Hotel,,,,Al Sahil,34611,Al Khobar Al Shamalia,Saudi,SA,reservations@ronzarose.com,966 13 881 3300,ronzarose.com,26.2949972,50.156977,65,1.jpg,2.jpg,3.jpg
Arts & Entertainment,Berwaz Hall,,,,Rabeah Ibn Abdulrahman St,34454,Doha Al Janubiyah,Saudi,SA,,966 55 508 7255,,26.2949972,50.156977,66,1.jpg,2.jpg,3.jpg
Arts & Entertainment,DoubleTree by Hilton Hotel Dhahran,,,,King Saud Branch Rd,31952,Al Ulaya,Saudi,SA,,966 13 331 1144,doubletree3.hilton.com,26.2949972,50.156977,67,1.jpg,2.jpg,3.jpg
Arts & Entertainment,Toys,,,,King Abdulaziz Road,34428,Al Khobar Al Shamalia,Saudi,SA,,966 13 896 0182,,26.2951426,50.1569769,68,1.jpg,2.jpg,3.jpg
Arts & Entertainment,My Beauty Toys,,,,Al Khobar Al Shamalia,34428,Al Khobar Al Shamalia,Saudi,SA,,,,26.2951341,50.1569769,69,1.jpg,2.jpg,3.jpg
Arts & Entertainment,Gamers Den,,,,Al Ulaya,34448,Al Khobar Al Shamalia,Saudi,SA,,966 59 007 9148,gamersdenstore.com,26.2951426,50.1569769,70,1.jpg,2.jpg,3.jpg
Arts & Entertainment,Moseid Yahya Ali AIO Sofei Trad. Est.,,,,3rd Street,13952,Al Shamalia,Saudi,SA,,966 13 897 4749,,26.1988786,50.0238807,71,1.jpg,2.jpg,3.jpg
Arts & Entertainment,Toys R Us,,,,3566 Prince Faisal Bin Fahd Road,34455,Doha Al Janubiyah,Saudi,SA,customercare@toysrus.com.sa,966 13 868 6414,toysrus.com.sa,26.3091695,50.1384527,72,1.jpg,2.jpg,3.jpg
Arts & Entertainment,جزيرة الأنمي Anime Island Store,,,,16th Street,34446,Al Aqrabiyah,Saudi,SA,,966 56 366 3252,"an-island.com


 
",26.2584422,50.1588479,73,1.jpg,2.jpg,3.jpg
Arts & Entertainment,محترف,,,,"Thuqbah,",34623,Al Khobar Al Shamalia,Saudi,SA,,966 56 590 5154,,26.2585877,50.1588479,74,1.jpg,2.jpg,3.jpg
Arts & Entertainment,BABATAIN TRADING,,,,Prince Nasser St,34429,Al Khobar Al Shamalia,Saudi,SA,,,,26.2588786,50.1588478,75,1.jpg,2.jpg,3.jpg
Arts & Entertainment,7046 الامير احمد، Madinat Al Um,,,,"7046 الامير احمد, Madinat Al Umal",34442,Al Khobar ,Saudi,SA,kurdiruh@alkurdi.com.sa,"966 13 895 4744
",alkurdi.com.sa,26.2583053,50.1588481,76,1.jpg,2.jpg,3.jpg
Arts & Entertainment,"Toys""R""Us",,,,Al Khuzama,34719,Al Khobar ,Saudi,SA,customercare@toysrus.com.sa,,toysrus.com.sa,26.2074495,50.161692,77,1.jpg,2.jpg,3.jpg
Arts & Entertainment,Fouad Center,,,,Al Khobar,34414,Al Khobar ,Saudi,SA,info@abdulla-fouad.com,966 013 814 1414,abdulla-fouad.com,26.2988811,50.18852,78,1.jpg,2.jpg,3.jpg
Arts & Entertainment,"Family Shop: Gifts, Accessories, School Tools, Houseware, Toys",,,,Al Khobar Al Shamalia,34428,Al Khobar ,Saudi,SA,,966 50 382 2047,,26.2583053,50.1588481,79,1.jpg,2.jpg,3.jpg
Arts & Entertainment,Hadabi Trading & Contracting Est.,,,,Al Khobar Al Shamalia,34425,King Khaled St,Saudi,SA, info@hactse.com,966 59 555 4553,hactse.com,26.2980764,50.1819564,80,1.jpg,2.jpg,3.jpg
Arts & Entertainment,Al Khobar Al Shamalia,,,,,34426,Al Khobar ,Saudi,SA,,966 13 894 8440,,26.2583053,50.1588481,81,1.jpg,2.jpg,3.jpg
Arts & Entertainment,BEST HELP Trading Est,,,,Al Khobar Al Shamalia,34427,Al Khobar ,Saudi,SA,,966 13 864 1353,,26.2583053,50.1588481,82,1.jpg,2.jpg,3.jpg
Arts & Entertainment,Toys Plus,,,,Al Khobar Al Shamalia,34429,Al Khobar ,Saudi,SA,,,,26.2583053,50.1588481,83,1.jpg,2.jpg,3.jpg
Arts & Entertainment,بيبيز آر أص,,,,An Nuzhah,32252,Dammam 32252,Saudi,SA,customercare@toysrus.com.sa,966 13 830 2545,toysrus.com.sa,26.4017306,,84,1.jpg,2.jpg,3.jpg
Arts & Entertainment,early learning centre,,,,"Mall of Dhahran, 6864 Prince Faisal Bin Fahd Road",34457,"Doha Al Janubiyah,",Saudi,SA,customercare@toyschool.com,"966 13 868 4253


 


 
",elc-me.com,26.3062977,50.1360094,85,1.jpg,2.jpg,3.jpg
Arts & Entertainment,Masterpieces of hobbies and gifts,,,,Al Khobar Al Shamalia,34429,Al Khobar ,Saudi,SA,,966 59 747 9136,,26.2583053,50.1588481,86,1.jpg,2.jpg,3.jpg
Arts & Entertainment,Anime Island Store,,,,"16th Street, Al Aqrabiyah",34446,Al Khobar ,Saudi,SA,,966 56 366 3252,an-island.com,26.3088991,50.1587279,87,1.jpg,2.jpg,3.jpg
Arts & Entertainment,Al-Rashid Theatre,,,,Alshihab Altaifi St,34448,Al Ulaya,Saudi,SA,info@rashidmall.com,966 13 899 4466,rashidmall.com,26.2924892,50.1455927,88,1.jpg,2.jpg,3.jpg
Arts & Entertainment,Zohoor alreef,,,,Al Khuzama,34718,Al Khobar ,Saudi,SA,,,,26.2510749,50.0480868,89,1.jpg,2.jpg,3.jpg
Arts & Entertainment,King Abdulaziz Center for World Culture,,,,"Ring Rd, Gharb Al Dhahran",34461,Dhahran,Saudi,SA,,,kingabdulazizcenter.com,26.251555,50.0480858,90,1.jpg,2.jpg,3.jpg
Arts & Entertainment,Dynamic Industry for Trading & Contracting Est.,,,,Prince Fawaz St,34426,Al Khobar,Saudi,SA,info@dynamic-industry.com,966 13 899 1470,dynamic-industry.com,26.1996361,49.8837581,91,1.jpg,2.jpg,3.jpg
Arts & Entertainment,INCO industrail Company,,,,Al Jawharah,34431,Al Khobar ,Saudi,SA,,,,26.2003256,49.8837541,92,1.jpg,2.jpg,3.jpg
Arts & Entertainment,Raqtan Group,,,,"Raqtan Complex, Khobar/Dammam Highway",31952,Dammam Highway,Saudi,SA,,966 13 857 3890,"raqtangroup.com
",26.2010152,49.8837501,93,1.jpg,2.jpg,3.jpg
Arts & Entertainment,Qtech,,,,"Ibn Sina, QTech , King khed Branch Road",34627,Al Khobar ,Saudi,SA,,966 58 294 9728,plus.google.com,26.2004723,49.8837467,94,1.jpg,2.jpg,3.jpg
Arts & Entertainment,Smico Specialized Metal Industry Co.Ltd,,,,Al Taawun,34644,Al Khobar ,Saudi,SA,,966 50 481 5392,,26.2011619,49.8837427,95,1.jpg,2.jpg,3.jpg
Arts & Entertainment,B2Flex Company,,,,Khobar St,34627 31952, Ibn Sina,Saudi,SA,,966 13 802 1735,b2flex.com,26.2018514,49.8837387,96,1.jpg,2.jpg,3.jpg
Arts & Entertainment,Industrial Supplies Development Co. Ltd.,,,,King Abdulaziz Rd,34442,Madinat Al Umal,Saudi,SA,hedho@isd.com.sa,966 13 893 3548,isd.com.sa,26.202541,49.8837347,97,1.jpg,2.jpg,3.jpg
Arts & Entertainment,Nijedi Industrial Supply Est,,,,Khaled Ibn Al Walid St,34225 31952,Al Khobar ,Saudi,SA,,966 13 857 3514,tetkon.com,26.2032305,49.8837307,98,1.jpg,2.jpg,3.jpg
Arts & Entertainment,Aflak Electronic Industries Co.,,,,"Madinat Al Umal, 2nd Floor, Riyad Bank Bldg",34441," Madenat Al-Ummal,",Saudi,SA,sales@aflak.com.sa,966 13 864 4070,aflak.com.sa,26.2046094,49.8837227,99,1.jpg,2.jpg,3.jpg
Arts & Entertainment,Al Kooheji Bilding Material,,,,"8th Street, Al Khobar Al Shamalia",34427,Al Khobar ,Saudi,SA,,966 13 867 0063,,26.20392,49.8837267,100,1.jpg,2.jpg,3.jpg
Arts & Entertainment,Fuad Abdullah Al Suwaiket Trading ,,,," Al Khobar Al Shamalia,",34429,Al Khobar Al Shamalia,Saudi,SA,info@evicco.com,138954364,fastco.sa.com,26.20392,49.8837267,101,1.jpg,2.jpg,3.jpg
Arts & Entertainment,Delmon Chemical Industries,,,,Dammam 2nd Industrial City,34327,Dammam,Saudi,SA,info@delmon.com.sa,966 13 857 7777,delmon.com.sa,26.20392,49.8837267,102,1.jpg,2.jpg,3.jpg
Arts & Entertainment,Bander Alhazmi For Trade And Industry Group,,,,"Al Bustan, 130. level 8",34422,karawan towers,Saudi,SA,Info@hazmi.com.sa,966 9200 12300,hazmi.com.sa,26.20392,49.8837267,103,1.jpg,2.jpg,3.jpg
Arts & Entertainment,Pan Gulf Industrial Investment,,,,Corniche,34611,Al Khobar ,Saudi,SA,info@pgiic.com,966 13 867 0444,pgiic.com,26.20392,49.8837267,104,1.jpg,2.jpg,3.jpg
Arts & Entertainment,Pan Gulf Industrial Systems - Fire & Safety,,,,"Ibn Sina, Pan Gulf Industrial Systems Post Box No. 1225",31952,Al Khobar ,Saudi,SA,sales@pgisystems.com,966 13 897 5651,pgisystems.com,26.2046094,49.8837227,105,1.jpg,2.jpg,3.jpg
Arts & Entertainment,Advanced Oil Field Services (AOS),,,,"Al Taawun, Baghlaf Industrial",34644,Al Khobar ,Saudi,SA,SALES@AROilFieldServices.com,966 13 864 9300,"aroilfieldservices.com
",26.2052989,49.8837187,106,1.jpg,2.jpg,3.jpg
Arts & Entertainment,Leap Networks Arabia,,,,Corniche,34412,Al Khobar ,Saudi,SA,enquiry@leap-networks.com,966 13 849 1867,leap-networks.com,26.2059883,49.8837147,107,1.jpg,2.jpg,3.jpg
Arts & Entertainment,Saudi Cast - Dammam Branch,,,,Al Khobar Al Shamalia,34426,Al Khobar ,Saudi,SA,info@saudicast.com,966 54 763 3582,saudicast.com,26.2940219,50.2071076,108,1.jpg,2.jpg,3.jpg
Arts & Entertainment,Saudi Cast Al Khobar Office,,,,Al Khobar Al Shamalia,34428,Al Khobar ,Saudi,SA,sales@saudicast.com,966 8594187,saudicast.com,26.294041,50.2071076,109,1.jpg,2.jpg,3.jpg
Arts & Entertainment,Al Hussan International School,,,,"Mohammed Al Fatih St, Ar Rakah Al Janubiyah",34226,Al Khobar ,Saudi,SA,,966 13 858 7566,international.alhussan.edu.sa,26.1996361,49.8837581,110,1.jpg,2.jpg,3.jpg
Arts & Entertainment,Prince Mohammad Bin Fahd University,,,,"617, Al Jawharah, Khobar",34754,Dhahran,Saudi,SA,,966 13 849 8880,pmu.edu.sa,26.2010152,49.8837501,111,1.jpg,2.jpg,3.jpg
Arts & Entertainment,Brod Bio G. Crib..,,,,"5th Street, Al Khobar Al Shamalia",34427,Al Khobar ,Saudi,SA,,,,26.3022048,50.1868234,112,1.jpg,2.jpg,3.jpg
Arts & Entertainment,BurgerFuel,,,,"Shatea Mall, Prince Mohammad Bin Fahad Street",31433,Al Shatea,Saudi,SA,,966 13 830 6020,burgerfuel.com,26.4546457,50.1181818,113,1.jpg,2.jpg,3.jpg
Arts & Entertainment,Sunset Weddings Hall,,,,"Al Manar,",31952,Al Khobar ,Saudi,SA,,966 13 811 5222,,26.3552042,49.7124805,114,1.jpg,2.jpg,3.jpg
Arts & Entertainment,ALHOKAIR TIME,,,,5157 الاشرعة، Ash Shati Ash Sharqi,32414,Al Khobar ,Saudi,SA,,966 9200 06699,alhokair.com,26.3533581,49.7124987,115,1.jpg,2.jpg,3.jpg
Arts & Entertainment,Cobra Amusement Park,,,,"Prince Mohammed Bin Fahd Road,",32235,Al Basatin,Saudi,SA,,,,26.3547295,49.7124907,116,1.jpg,2.jpg,3.jpg
Arts & Entertainment,Adventure World,,,,Prince Mansour St,32241,Muhammed Ibn Saud,Saudi,SA,,966 50 656 2603,,26.4320399,50.1118558,117,1.jpg,2.jpg,3.jpg
Arts & Entertainment,Dolphin Village,,,,Cornish Rd,32421,Dammam,Saudi,SA,info@dolphin-resort.net,966 55 392 2999,dolphin-resort.net,26.4331821,50.0256059,118,1.jpg,2.jpg,3.jpg
Arts & Entertainment,"Cobra Amusement Park
مدينة ألعاب الكوبرا",,,,Prince Mohammed Bin Fahd Road,32235,Dammam,Saudi,SA,,,,26.3558898,49.7124765,119,1.jpg,2.jpg,3.jpg
Arts & Entertainment,Prince Mohammed Bin Fahd Stadium,,,,Prince Mohammed Bin Fahd Road,32241,muhammed Ibn Saud,Saudi,SA,,,,26.3557493,49.7124839,120,1.jpg,2.jpg,3.jpg
Arts & Entertainment,KIDs INN,,,,An Nur,32444,Dammam,Saudi,SA,,,,26.3564349,49.7124799,121,1.jpg,2.jpg,3.jpg
Arts & Entertainment,Al Fakhriyah Toys,,,,Ash Shulah,34261,Dammam,Saudi,SA,,,,26.3571205,49.7124759,122,1.jpg,2.jpg,3.jpg
Arts & Entertainment,مؤسسة النداف للألعاب,,,,Saad Ibn Muath St,32245,Ghirnatah,Saudi,SA,,966 13 841 8549,,26.3578062,49.7124719,123,1.jpg,2.jpg,3.jpg
Arts & Entertainment,منارات العطاء,,,,Imam Mohammed Bin Saud St,32274,Al Khobar ,Saudi,SA,,966 13 813 8000,mnarat.org.sa,26.3795862,50.0601569,124,1.jpg,2.jpg,3.jpg
Arts & Entertainment,Islamic Cultural Center,,,,King Saud St,32416,Al Souq,Saudi,SA,info@icc.org.sa,966 13 832 0004,icc.org.sa,26.3798597,50.0601567,125,1.jpg,2.jpg,3.jpg
Arts & Entertainment,Noble Badminton Club - Dammam,,,,Aktham Ibn Saifi St,32232,Dammam,Saudi,SA,,966 50 587 3745,noblebadminton.com,26.3801332,50.0601564,126,1.jpg,2.jpg,3.jpg
Arts & Entertainment,Swiss International Al Hamra Hotel - Dammam,,,,King Khaled St,32242, Al Souq,Saudi,SA,,966 13 833 3444,swissinternationalhotels.com,26.438834,50.0361292,127,1.jpg,2.jpg,3.jpg
Arts & Entertainment,Swiss International Al Hamra Hotel ,,,,King Khaled St,32242,Dammam,Saudi,SA,,966 13 833 3444,swissinternationalhotels.com,26.438834,50.0361289,128,1.jpg,2.jpg,3.jpg
Arts & Entertainment,Dhahran Expo,,,,4344 Exhibition Rd,34213,Dammam,Saudi,SA,info@diec.com.sa,966 13 859 1888,dhahranexpo.com.sa,26.3637105,50.0894331,129,1.jpg,2.jpg,3.jpg
Arts & Entertainment,Pearl Hall,,,,Al Imam Ali Ibn Abi Talib St,32236 2745,Abdullah Fuad,Saudi,SA,,966 13 864 5975,,26.3650783,50.0894318,130,1.jpg,2.jpg,3.jpg
Arts & Entertainment,Dela Paix,,,,King Saud St,32244,An Nakhil,Saudi,SA,,,,26.4425911,50.0190155,131,1.jpg,2.jpg,3.jpg
Arts & Entertainment,Dammam Indian Islahi Center.,,,,Al Dawasir,32416,Al Khobar ,Saudi,SA,,966 50 095 7657,,26.4396015,50.0364151,132,1.jpg,2.jpg,3.jpg
Arts & Entertainment,Stadium Sports-University of Dammam,,,,Dammam ,34211,Al Khobar ,Saudi,SA,pr@iau.edu.sa,966133333766,iau.edu.sa,26.3661726,50.0894308,133,1.jpg,2.jpg,3.jpg
Arts & Entertainment,Stadium,,,,As Safa,34221,Al Khobar ,Saudi,SA,,966 13 857 1100,,26.3664461,50.0894306,134,1.jpg,2.jpg,3.jpg
Arts & Entertainment,Community Center,,,,Ash Shulah,34274,Dammam,Saudi,SA,,,emaar.com,26.3667197,50.0894303,135,1.jpg,2.jpg,3.jpg
Arts & Entertainment,Al Multaka,,,,Prince Metib Road,34251,Al Firdaws,Saudi,SA,,966 53 291 5580,,26.3669932,50.0894301,136,1.jpg,2.jpg,3.jpg
Arts & Entertainment,أستراحة اليحي للمناسبات و الأحتفالات,,,,Al Fursan,32333,Dammam,Saudi,SA,,966 55 916 5489,,26.3433105,49.8894589,137,1.jpg,2.jpg,3.jpg
Arts & Entertainment,Wazaan,,,,Al Adamah,32242, Dammam ,Saudi,SA,,,,26.3675403,50.0894296,138,1.jpg,2.jpg,3.jpg
Arts & Entertainment,Granada Neighborhood Center,,,,5043 Ibn Majah St,32245,Ghirnatah,Saudi,SA,,966 13 842 8537,,26.3678139,50.0894293,139,1.jpg,2.jpg,3.jpg
Arts & Entertainment,Summit courts,,,,Prince Mohammed Bin Fahd Road,32253,Madinat Al Umal,Saudi,SA,,966 53 382 0078,,26.3680874,50.0894291,140,1.jpg,2.jpg,3.jpg
Arts & Entertainment,Prince Saud Bin Jalawy Stadium,,,,As Sadafah,34216,Dammam,Saudi,SA,,,,26.368361,50.0894288,141,1.jpg,2.jpg,3.jpg
Arts & Entertainment,Roqy Center,,,,Al Aqrabiyah,34446,Al Khobar,Saudi,SA,,966 53 830 3337,,26.3694551,50.0894278,142,1.jpg,2.jpg,3.jpg
Arts & Entertainment,Al-Hamra Center,,,,Cornish Rd,32422,Al Hamra,Saudi,SA,,966 13 809 6734,,26.4668847,50.0263008,143,1.jpg,2.jpg,3.jpg
Arts & Entertainment,Alkhumasia Animal Feed Mill,,,,Salman Al Farisi,32213, King Abdulaziz Seaport,Saudi,SA,info@khumasia.sa,966 58 199 8593,khumasia.sa,26.4228594,50.1270098,144,1.jpg,2.jpg,3.jpg
Arts & Entertainment,Oka Veterinary Clinic,,,,King Fahd Road,32236,Abdullah Fuad,Saudi,SA,,966 13 825 0750,,26.4229341,50.1270098,145,1.jpg,2.jpg,3.jpg
Arts & Entertainment,Boxes and Bags,,,,Abdullah Fuad,32236,Al Khobar ,Saudi,SA,,966 13 831 8303,,26.4231082,50.074478,146,1.jpg,2.jpg,3.jpg
Arts & Entertainment,birthday parties goodies.,,,,Al Souq,32242,Al Khobar ,Saudi,SA,,966 50 643 4679,,26.4233815,50.0744778,147,1.jpg,2.jpg,3.jpg
Arts & Entertainment,Panorama Dental Center,,,,Khaleej Rd,32422,Dammam,Saudi,SA,panoramadc3@gmail.com,"966 13 809 4775
",panoramadental.com.sa,26.4595782,50.0922924,148,1.jpg,2.jpg,3.jpg
Arts & Entertainment,تسجيلات شمس الفنية,,,,"2 (A) St, Al Mazruiyah",32414,Dammam,Saudi,SA,,966 59 830 2255,,26.3805833,50.0247354,149,1.jpg,2.jpg,3.jpg
Arts & Entertainment,Studio Tech Tun,,,,Al Ashriah Street,32415,Dammam,Saudi,SA,,966 54 003 4724,,26.3808568,50.0247352,150,1.jpg,2.jpg,3.jpg
Arts & Entertainment,أستديو بحة الحنجرة للإنتاج الفني,,,,Imam Mohammed Bin Saud St,32274,Dammam,Saudi,SA,,966 59 337 1799,,26.3811303,50.0247349,151,1.jpg,2.jpg,3.jpg
Arts & Entertainment,تسجيلات الوداع فنيه,,,,King Abdulaziz Rd,34264,Dammam,Saudi,SA,,966 53 670 1312,,26.3814038,50.0247347,152,1.jpg,2.jpg,3.jpg
Arts & Entertainment,استديو الاصالة - الدمام,,,,Omar Ibn Al Khattab St,32272,Dammam,Saudi,SA,,966 58 441 1555,,26.3816773,50.0247344,153,1.jpg,2.jpg,3.jpg
Arts & Entertainment,تسجيلات صدى القراء الإسلامية,,,,"Uhud, 3337",32263,Dammam,Saudi,SA,,966 13 822 7264,,26.3819508,50.0247342,154,1.jpg,2.jpg,3.jpg
Arts & Entertainment,استديو شيلات الدمام 0562223280,,,,"28th Street,",32244,Dammam,Saudi,SA,,966 56 222 3280,,26.3822243,50.0247339,155,1.jpg,2.jpg,3.jpg
Arts & Entertainment,الدولية للأجهزة الإلكترونية,,,,Al Souq,32242,Dammam,Saudi,SA,,966 13 834 4216,adawliah.com,26.3824978,50.0247337,156,1.jpg,2.jpg,3.jpg
Arts & Entertainment,Alfa Wood Industries,,,,Industrial,32446,Dammam,Saudi,SA,,,,26.3830447,50.0247332,157,1.jpg,2.jpg,3.jpg
Arts & Entertainment,Bangladesh International School Dammam,,,,"Ghirnatah, 2489",32243,Dammam,Saudi,SA,bisdammam@gmail.com,966 13 843 5390,bisdammam.com,26.3833182,50.0247329,158,1.jpg,2.jpg,3.jpg
Arts & Entertainment,International Schools Group - Dammam,,,,King Saud St,32445,Dammam,Saudi,SA,dammam-help-desk@isg.edu.sa,966 13 829 2444,dammam.isg.edu.sa,26.3835917,50.0247327,157,1.jpg,2.jpg,3.jpg
Arts & Entertainment,محل عدنان الديكور,,,,Al Khodaryah,32436,Dammam,Saudi,SA,,966 58 088 4036,,26.3838652,50.0247324,158,1.jpg,2.jpg,3.jpg
Arts & Entertainment,كلية الاداب,,,,7667 Prince Nayef Bin Abdulaziz Rd,32256 3705,Dammam,Saudi,SA,helpdesk@iau.edu.sa,013-3331111,iau.edu.sa,26.3841387,50.0247322,159,1.jpg,2.jpg,3.jpg
Arts & Entertainment,Solidwood Carpentry,,,,3753 King Abdulaziz Rd,32437 6722,Dammam,Saudi,SA,sales@solidwood.com.sa,966 50 584 3435,solidwood.com.sa,26.4662272,49.9680622,160,1.jpg,2.jpg,3.jpg
Arts & Entertainment,IIS Dammam Girl Sction,,,,فخر الدين الانصاري7783,34225,Ar Rakah Ash Shamaliyah,Saudi,SA,chairmaniisd@iisdammam.edu.sa,966 57 734 2423,iisdammam.edu.sa,26.3852327,50.0247312,161,1.jpg,2.jpg,3.jpg
Arts & Entertainment,IISDM prep 1,,,,"3911 مصطفى صادق الرفاعي، Ar Rakah Ash Shamaliyah, 8055",34224,Dammam,Saudi,SA,,,iisdammam.edu.sa,26.3855061,50.0247309,162,1.jpg,2.jpg,3.jpg
Arts & Entertainment,Hor eye glasses Dammam,,,,"King Khaled St,",32245,Ghirnatah,Saudi,SA,,966 13 842 9010,,26.3557493,49.7124839,163,1.jpg,2.jpg,3.jpg
Arts & Entertainment,Magrabi Optical,,,,Al Faisaliyah,32272,Dammam,Saudi,SA,management@iisdammam.edu.sa,966 13 833 7668,magrabioptical.com,26.3564349,49.7124799,164,1.jpg,2.jpg,3.jpg
Arts & Entertainment,Mansoor Optical,,,,Muhammed Ibn Saud,32241,Dammam,Saudi,SA,,966 13 832 8520,magrabioptical.com,26.3798127,49.7138532,165,1.jpg,2.jpg,3.jpg
Arts & Entertainment,Magrabi,,,,"1 (C) St, Al Tubayshi",32233,Dammam,Saudi,SA,,,magrabioptical.com,26.3564349,49.7124799,166,1.jpg,2.jpg,3.jpg
Arts & Entertainment,Durrat Al Ayn Optics,,,,Prince Mohammed Bin Fahd Road,32241,Dammam,Saudi,SA,,966 13 830 2822,durratalayn.com,26.3564349,49.7124799,167,1.jpg,2.jpg,3.jpg
Arts & Entertainment,AL DULIMAN OPTICS,,,,Prince Mohammed Bin Fahd Road,32414,Al Mazruiyah,Saudi,SA,info@aldulimanoptics.com,966 13 834 9595,aldulimanoptics.com,26.3564349,49.7124799,168,1.jpg,2.jpg,3.jpg
Arts & Entertainment,Carrefour Market,,,,King Khaled St,32246,Al Jalawiyah,Saudi,SA,,966 9200 00282,carrefourksa.com,26.3539031,49.7124904,169,1.jpg,2.jpg,3.jpg
Arts & Entertainment,"Al-Rashid Theatre
مسرح مجمع الراشد",,,,Alshihab Altaifi St,34448,Al Ulaya,Saudi,SA,info@rashidmall.com,966 13 899 4466,rashidmall.com,26.2924892,50.1784229,170,1.jpg,2.jpg,3.jpg
Arts & Entertainment,Bahrain Headshots,,,,Area 324 Avenue 22 Building 202,34447,Bridgeview Apartments,Saudi,SA,,973 3301 4590,bahrainheadshots.com,26.2167588,50.6101673,171,1.jpg,2.jpg,3.jpg
Arts & Entertainment,توى تاون الخبر,,,,8513 King Saud Rd,32246,Al Andalus,Saudi,SA,,,,26.3004387,50.1500759,172,1.jpg,2.jpg,3.jpg
Arts & Entertainment,Al badriyah night club,,,,14th St 14th St,34623 7936,Thuqbah,Saudi,SA,,966 50 586 5667,,26.3005841,50.1500759,173,1.jpg,2.jpg,3.jpg
Arts & Entertainment,Mall of Dhahran,,,,"Mall of Dhahran Boulevard, Doha Al Janubiyah، Doha Al Janubiyah",34457,Az Zahran,Saudi,SA,info@arabiancentres.com,966 9200 00262,dhahranmall.com,26.3056314,50.1680719,174,1.jpg,2.jpg,3.jpg
Arts & Entertainment,Darna Signboard,,,,Dhahran Jubail Expy,31952,Al Khobar ,Saudi,SA,,,,26.2794558,49.9224638,175,1.jpg,2.jpg,3.jpg
Arts & Entertainment,Half Moon Police,,,,"617, Dhahran 34737",31952,Al Khobar ,Saudi,SA,,,,26.2799355,49.9224628,176,1.jpg,2.jpg,3.jpg
Arts & Entertainment,حلاق مراكش,,,,4040 Abdullah Ibn Al Abbas St,34452,Doha Al Janubiyah,Saudi,SA,,,,26.2804153,,177,1.jpg,2.jpg,3.jpg
Arts & Entertainment,wxyz lounge,,,,Al Ulaya,34447,Al Khobar ,Saudi,SA,,966 13 816 4444,,26.280895,49.9224608,178,1.jpg,2.jpg,3.jpg
Arts & Entertainment,Hasseer,,,,Al Ulaya,34447,Al Khobar ,Saudi,SA,,966 13 831 0788,hasseer.com,26.2813748,49.9224598,179,1.jpg,2.jpg,3.jpg
Arts & Entertainment,ممجمع الرحاب,,,,Al Khobar,34236,Al Khobar ,Saudi,SA,,,,26.2818545,49.9224588,180,1.jpg,2.jpg,3.jpg
Arts & Entertainment,Ncms,,,,Sahil St,34253,Dammam,Saudi,SA,,,,26.2818545,49.9224588,181,1.jpg,2.jpg,3.jpg
Arts & Entertainment,AlArak Isthiraah,,,,Dhahran Rd,Al Jubail 32912,Al Khobar ,Saudi,SA,,,,26.706599,49.7511453,182,1.jpg,2.jpg,3.jpg
Arts & Entertainment,الشعلان للخرفان,,,,As Sawari,34724,Al Khobar ,Saudi,SA,,,,26.2818545,49.9224588,183,1.jpg,2.jpg,3.jpg
Arts & Entertainment,Dhahran British Grammar School,,,,King Fahd University of Petroleum and Minerals,34464,Dhahran,Saudi,SA,,966 13 330 0555,dhahranbritish.com,26.3045556,50.1462332,184,1.jpg,2.jpg,3.jpg
Arts & Entertainment,King Fahd University Of Petroleum & Minerals,,,,"University Blvd, King Fahd University of Petroleum and Minerals",31261,Dhahran,Saudi,SA,,966 13 860 0000,kfupm.edu.sa,26.3045747,50.1462332,185,1.jpg,2.jpg,3.jpg
Arts & Entertainment,Dhahran Cricket Association,,,,Gharb Al Dhahran,34473,Al Khobar ,Saudi,SA,,,dca4u.com,26.283533,50.1000833,186,1.jpg,2.jpg,3.jpg
Arts & Entertainment,Dhahran Cricket Ground,,,,Gharb Al Dhahran,34472,Al Khobar ,Saudi,SA,,,dca4u.com,26.283533,50.1000833,187,1.jpg,2.jpg,3.jpg
Arts & Entertainment,International Schools Group - Dhahran,,,,King Fahd University of Petroleum and Minerals,34464,Consulate Driveway,Saudi,SA,,966 13 330 0555,isg.edu.sa,26.3021112,50.1529463,189,1.jpg,2.jpg,3.jpg
Arts & Entertainment,Fun Oasis واحة المرح,,,,Al Ulaya,34448,Al Khobar ,Saudi,SA,,,m.facebook.com,26.2312405,49.9032749,190,1.jpg,2.jpg,3.jpg
Arts & Entertainment,Ministry of water near Iskan Khobar,,,,Southern Street,34626,Al Khobar ,Saudi,SA,,,,26.2317207,49.9032739,191,1.jpg,2.jpg,3.jpg
Arts & Entertainment,Kids Play Area,,,,2847 Custodian of The Two Holy Mosques Rd,34623,Thuqbah,Saudi,SA,,,,26.2322009,49.9032729,192,1.jpg,2.jpg,3.jpg
Arts & Entertainment,Family Park,,,,Sunset Blvd,34713,Al Khobar,Saudi,SA,mail@sunset-beach.com.sa,966 13 890 2000,sunset-beach.com.sa,26.2331612,49.9032709,193,1.jpg,2.jpg,3.jpg
Arts & Entertainment,دمام بارك DAMMAM PARK,,,,Al Basatin,32235,Dammam,Saudi,SA,,,,26.3897157,49.9831873,194,1.jpg,2.jpg,3.jpg
Arts & Entertainment,DAMMAM PARK,,,,Al Basatin,32235,Dammam,Saudi,SA,,,,26.3897157,49.9831873,195,1.jpg,2.jpg,3.jpg
Arts & Entertainment,واحة المرح,,,,Al Ulaya,34448 3536,Al Khobar ,Saudi,SA,,,,26.2346017,49.9032679,196,1.jpg,2.jpg,3.jpg
Arts & Entertainment,Splash Island,,,,Abdullah Fuad,32236,Dammam,Saudi,SA,,966 53 690 3237,twitter.com,26.3990726,49.9775201,197,1.jpg,2.jpg,3.jpg
Arts & Entertainment,Saffori Land,,,,2843 Prince Mohammed Bin Fahd Road,32236, Abdullah Fuad,Saudi,SA,s.media@othaimleisure.com,,othaimleisure.com,26.4004591,49.9774084,198,1.jpg,2.jpg,3.jpg
Arts & Entertainment,Sky Zone,,,,Qurtoba,34235,Al Khobar ,Saudi,SA,info@skyzoneksa.com,966 9200 06699,"skyzoneksa.com
",26.2622835,49.7523992,199,1.jpg,2.jpg,3.jpg
Arts & Entertainment,Eastern Dhahran Auto Showroom ,,,,King Fahd Suburb,32314,Al Khobar ,Saudi,SA,,966 13 865 4444,easterndhahran.com,26.4025952,49.871149,200,1.jpg,2.jpg,3.jpg
Arts & Entertainment,Nike,,,,6864 King Saud Rd,34457,"34457 3587 King Saud Rd,",Saudi,SA,,,nike.com,26.2283593,49.903278,201,1.jpg,2.jpg,3.jpg
Arts & Entertainment,Abdulaziz Al-Binali Trading Corporation Showroom,,,,Dhahran Jubail Expy,32442,Dammam,Saudi,SA,,966 13 809 1111,,26.4025952,49.871149,202,1.jpg,2.jpg,3.jpg
Arts & Entertainment,AHURA Showroom,,,,Al Qusur,31952,Al Khobar ,Saudi,SA,,966 50 298 8865,,26.4025952,49.871149,203,1.jpg,2.jpg,3.jpg
Arts & Entertainment,Max ماكس,,,,3566 Prince Faisal Bin Fahd Road,34455,Doha Al Janubiyah,Saudi,SA,help.in@maxfashion.com,966 13 833 1675,maxstores.com,26.4025952,49.871149,204,1.jpg,2.jpg,3.jpg
Arts & Entertainment,Al-Jazeera Paints دهانات الجزيرة,,,,Saeed Ibn Al Museeb St,34257,Dhahran,Saudi,SA,,966 13 893 0701,,26.4025952,49.871149,205,1.jpg,2.jpg,3.jpg
Arts & Entertainment,IKEA,,,,"Prince Faisal Bin Fahd Road,",34455,Doha Al Janubiyah,Saudi,SA,info@ikea.com.kw,966 9200 04532,https://www.ikea.com/kw/en/,26.4025952,49.871149,206,1.jpg,2.jpg,3.jpg
Arts & Entertainment,Sun and Sand Sports,,,,6864 Prince Faisal Bin Fahd Road,34457,Doha Al Janubiyah,Saudi,SA,,966 13 891 0426,sssports.com,26.3536161,50.0245813,207,1.jpg,2.jpg,3.jpg
Arts & Entertainment,Almajdouie Motors - CHANGAN,,,,7682 King Saud Rd Al Qashlah Dhahran 34232 4280 King Saud Rd,34232,Al Qashlah,Saudi,SA,,966 9200 19992,"changan-ksa.com
",26.3536161,50.0245813,208,1.jpg,2.jpg,3.jpg
Arts & Entertainment,Abdullatif Jameel Toyota,,,,King Saud Rd,34447,Al Khobar,Saudi,SA,,966 13 882 2022,toyota.com.sa,26.3538897,50.0245811,209,1.jpg,2.jpg,3.jpg
Arts & Entertainment,Skechers,,,,"Doha Al Janubiyah, AMWAJ MALL",34455,"DAMMAM, 3566 Prince Faisal Bin Fahd Road",Saudi,SA,,966 55 300 4434,skechers.com,26.3544369,50.0245807,210,1.jpg,2.jpg,3.jpg
Arts & Entertainment,Nike Store,,,,"Doha Al Janubiyah, Al Dhahran St, Ash Sharqijah,",34448,Al Dhahran St,Saudi,SA,,"966 13 889 6119
",nike.com,26.3536161,50.0245813,211,1.jpg,2.jpg,3.jpg
Arts & Entertainment,R&B,,,,"Khaleej Rd, Al Aziziyah",32424,Dammam,Saudi,SA,info@randbfashion.com,966 13 868 7021,randbfashion.com,26.3538897,50.0245811,212,1.jpg,2.jpg,3.jpg
Arts & Entertainment,Aljabr Automotive,,,,Madinat Al Umal,"34443

",Dahran Street,Saudi,SA,info@kia-sa.com,966 13 325 5263,"
kia-sa.com",26.3541633,50.0245809,213,1.jpg,2.jpg,3.jpg
Arts & Entertainment,Nissan Show Room,,,,Al Qashlah,34232,Al Khobar ,Saudi,SA,,,,26.3544369,50.0245807,214,1.jpg,2.jpg,3.jpg
Arts & Entertainment,ONTIME,,,,"Doha, Dhahran mall, Doha Al Janubiyah,Dhahran,Gate1",34457,Al Khobar ,Saudi,SA,,966 13 868 3302,ontime.com,26.3547105,50.0245805,215,1.jpg,2.jpg,3.jpg
Arts & Entertainment,Giordano,,,,6864 King Saud Rd,34457,Doha Al Janubiyah,Saudi,SA,,966 800 111 0128,,26.3549841,50.0245803,216,1.jpg,2.jpg,3.jpg
Arts & Entertainment,Rolex Kooheji,,,,Doha Al Janubiyah,34457,Dhahran,Saudi,SA,,,,26.3558049,50.0245797,215,1.jpg,2.jpg,3.jpg
Arts & Entertainment,SHEARMAN & STERLING LLP,,,,"Prince Turkey Street,",34427,Al Khobar ,Saudi,SA,,966 13 830 6554,shearman.com,26.2288031,49.9032789,216,1.jpg,2.jpg,3.jpg
Arts & Entertainment,Dr. Sultan AlMasoud & Partners Law Firm,,,,Prince Turkey Street,34413,Corniche,Saudi,SA,,966 13 830 6554,shearman.com,26.2292833,49.903278,217,1.jpg,2.jpg,3.jpg
Arts & Entertainment,MOHAMMED ALSHAREEF LAW FIRM,,,,Custodian of The Two Holy Mosques Rd Custodian of The Two Holy Mosques Rd,34621,Al Khobar,Saudi,SA,Info@glc-lawfirm.com,966 13 899 5511,glc-lawfirm.com,26.2297635,49.9032772,218,1.jpg,2.jpg,3.jpg
Arts & Entertainment,Dhahran,,,,Dhahran is a city located in Eastern Province,,,Saudi,SA,,,,26.2283229,49.9032797,219,1.jpg,2.jpg,3.jpg
Arts & Entertainment,PWC,,,,"King Fahd Road, Al Hizam Al Akhdar",34433,Al Hizam Al Akhdar,Saudi,SA,,966 13 849 6311,pwc.com,26.2316843,49.9032739,218,1.jpg,2.jpg,3.jpg
Arts & Entertainment,The Secret Room الغرفة السرية,,,,Prince Mohammed Bin Fahd Road,32413,Ash Shati Al Gharbi,Saudi,SA,info@thesecretroomsa.com,966 55 580 8516,thesecretroomsa.com,26.4050373,50.0130219,219,1.jpg,2.jpg,3.jpg
Arts & Entertainment,Games Stores,,,,15th Street,32242,Al Khobar ,Saudi,SA,,,,26.4055841,50.0130214,220,1.jpg,2.jpg,3.jpg
Arts & Entertainment,Different Games Dammam,,,,"15th Street, Al Souq",32242,Dammam,Saudi,SA,,966 55 071 8246,,26.4058576,50.0130212,221,1.jpg,2.jpg,3.jpg
Arts & Entertainment,Dar commercial professions Foundation,,,,Al Souq,32242,Al Khobar ,Saudi,SA,,966 13 835 0017,,26.4049177,50.0130218,222,1.jpg,2.jpg,3.jpg
Arts & Entertainment,العيد لألعاب الكمبيوتر,,,,"15th Street, Al Souq",32242,Dammam,Saudi,SA,,966 50 499 4374,,26.4051911,50.0130215,223,1.jpg,2.jpg,3.jpg
Arts & Entertainment,Island Games Trading Est.,,,,Al Souq,32242,Al Khobar ,Saudi,SA,,966 13 833 3014,,26.405157,50.0130213,224,1.jpg,2.jpg,3.jpg
Arts & Entertainment,Clix,,,,As Safa,34222,Al Khobar ,Saudi,SA,,966 50 320 0004,,26.4054304,50.0130211,225,1.jpg,2.jpg,3.jpg
Arts & Entertainment,عالم المتفوق,,,,Al Jamiah,Dhahran 34257,Al Khobar ,Saudi,SA,,966 55 402 3813,,26.4057038,50.0130208,226,1.jpg,2.jpg,3.jpg
Arts & Entertainment,Suburb Games,,,,King Fahd Suburb,32314,Al Khobar ,Saudi,SA,,,,26.4062506,50.0130203,227,1.jpg,2.jpg,3.jpg
Arts & Entertainment,VERSUS GAMING CENTER,,,,As Safa,34222,Al Khobar ,Saudi,SA,,966 13 814 5760,versus-games.com,26.406524,50.0130201,228,1.jpg,2.jpg,3.jpg
Arts & Entertainment,Aloft Dhahran,,,,King Saud Branch Road Crossing 21st Street,,Al Khobar ,Saudi,SA,,966 13 816 4444,starwoodhotels.com,26.3209599,50.1301192,229,1.jpg,2.jpg,3.jpg
Arts & Entertainment,Pearl compound مجمع اللؤلؤة,,,,Prince Sultan Bin Fahd St,34234,Qurtoba,Saudi,SA,,,,26.3463247,50.1733991,230,1.jpg,2.jpg,3.jpg
Arts & Entertainment,Dhahran Movie Theatre,,,,"King's Rd, Gharb Al Dhahran",34465,Al Khobar ,Saudi,SA,webmaster2@aramco.com,966 13 875 3456,saudiaramco.com,26.3211843,50.1301192,231,1.jpg,2.jpg,3.jpg
Arts & Entertainment,Al Jamiah Dist Community Center,,,,"Ibn Jubair Street,",34257,Al Khobar ,Saudi,SA,,,,26.3473035,50.1232686,232,1.jpg,2.jpg,3.jpg
Arts & Entertainment,صالة بلياردوالليث,,,,Doha Al Janubiyah,34451,Al Khobar ,Saudi,SA,,966 54 329 9235,,26.3211843,50.1301192,233,1.jpg,2.jpg,3.jpg
Arts & Entertainment,Football Ground,,,,King Fahd University of Petroleum and Minerals,34463,Al Khobar ,Saudi,SA,,,kfupm.waki.io,26.3211843,50.1301192,234,1.jpg,2.jpg,3.jpg
Arts & Entertainment,KFUPM Stadium,,,,King Fahd University of Petroleum and Minerals,34464,Al Khobar ,Saudi,SA,,,,26.3207355,50.1301193,235,1.jpg,2.jpg,3.jpg
Arts & Entertainment,Technical Exchange Center,,,,Technical Exchange Rd,34466,Gharb Al Dhahran,Saudi,SA,,,saudiaramco.com,26.3207355,50.1301193,236,1.jpg,2.jpg,3.jpg
Arts & Entertainment,Prince Naif Centre For Cultural Science,,,,King Fahd University of Petroleum and Minerals,34463,Al Khobar ,Saudi,SA,,,,26.3208103,50.1301193,237,1.jpg,2.jpg,3.jpg
Arts & Entertainment,Dhahran Women's Group,,,,Gharb Al Dhahran,34465 4055,Al Khobar ,Saudi,SA,,,,26.3209599,50.1301192,238,1.jpg,2.jpg,3.jpg
Arts & Entertainment,"Virgin Megastore
",,,,Doha Al Janubiyah,34457,Al Khobar ,Saudi,SA,,966 13 868 6791,virginmegastore.com.sa,26.2948821,50.1742188,239,1.jpg,2.jpg,3.jpg
Arts & Entertainment,Bright Avenue Entertainment,,,,"
8007 الامير فواز، Al Khobar Al Shamalia",34426,Al Khobar ,Saudi,SA,,,twitter.com,26.3084463,50.1863728,240,1.jpg,2.jpg,3.jpg
Arts & Entertainment,Aswar Hotel Suites,,,,"Al Ulaya, 6-A Street District",34448,Al Khobar,Saudi,SA,,966 13 331 3444,,26.2898606,50.0859834,241,1.jpg,2.jpg,3.jpg
Arts & Entertainment,Dhahran Heights Portable (bldg 9172),,,,Gharb Al Dhahran,34461,Dhahran,Saudi,SA,,,saudiaramco.com,26.2901514,50.0859833,242,1.jpg,2.jpg,3.jpg
Arts & Entertainment,Jones Day,,,,"Hugayet Tower, 5374 King Fahd Road",34433,Al Hizam Al Akhdar,Saudi,SA,,966 13 849 6606,jonesday.com,26.3085808,50.2077233,243,1.jpg,2.jpg,3.jpg
Arts & Entertainment,Arabia Pictures AP,,,,Custodian of The Two Holy Mosques Rd,34463,Al Khobar ,Saudi,SA,,966 50 561 9214,arabiapictures.com,26.325527,50.1286016,244,1.jpg,2.jpg,3.jpg
Arts & Entertainment,بوز,,,,Doha Al Janubiyah,34457,Az Zahran,Saudi,SA,,966 13 861 0201,bose.com,26.2283593,49.9032795,245,1.jpg,2.jpg,3.jpg
Arts & Entertainment,South Dhahran Home Ownership - Project Management,,,,Cooperative Council Road,34512, Dhahran,Saudi,SA,,,saudiaramco.com,26.2288395,49.9032787,246,1.jpg,2.jpg,3.jpg
Arts & Entertainment,Samsung,,,,Al Khalidiyah Al Janubiyah,32225,7599،، Dammam,Saudi,SA,,966 800 247 7722,,26.3971986,50.0254408,247,1.jpg,2.jpg,3.jpg
Arts & Entertainment,Dhahran Ahliyya Schools,,,,"Anas Ibn Malik St, Doha Al Janubiyah",34452,Al Khobar ,Saudi,SA,,966 13 891 9222,das.sch.sa,26.3285436,50.1630107,248,1.jpg,2.jpg,3.jpg
Arts & Entertainment,International Schools Group DHS,,,,King Fahd University of Petroleum and Minerals,34464,Dhahran,Saudi,SA,,966 13 330 0555,isg.edu.sa,26.3137661,50.1327708,249,1.jpg,2.jpg,3.jpg
Arts & Entertainment,Subway,,,,"Doha Al Janubiyah, Block #4310 Abdullah Ibn Al-Abbas Street",34451,Dhahran,Saudi,SA,,966 13 868 2350,subwayarabia.com,26.3137661,50.1327708,250,1.jpg,2.jpg,3.jpg
Arts & Entertainment,Dhahran Hills Schools,,,,"Jarir St, Al Qusur",34247,Dhahran,Saudi,SA,,966 13 868 7711,dahranhillsschool.com,26.3137661,50.1327708,251,1.jpg,2.jpg,3.jpg
Arts & Entertainment,8Portions Pizza,,,,Prince Mohammed Bin Fahd Road,31952,Al Qusur,Saudi,SA,,966 13 831 8081,8portions-pizza.business.site,26.3137661,50.1327708,252,1.jpg,2.jpg,3.jpg
Arts & Entertainment,International Indian School Dammam,,,,As Safa,34222,Al Khobar ,Saudi,SA,,966 13 814 2801,iisdammam.edu.sa,26.4078879,50.0331522,253,1.jpg,2.jpg,3.jpg
Arts & Entertainment,LG Naghi - DAMMAM-1 ,,,,"Ash Shati Ash Sharqi, Khaleej Rd, Ash Shati Sharqi, ",32413,Dammam,Saudi,SA,,966 13 831 5730,unitednaghi.com.sa,26.4084347,50.0331518,254,1.jpg,2.jpg,3.jpg
Arts & Entertainment,LG Naghi - Dammam2 showroom ,,,,"Al Jawharah, Khaleej Rd",32424,Dammam,Saudi,SA,,966 13 831 5843,unitednaghi.com.sa,26.4087081,50.0331516,255,1.jpg,2.jpg,3.jpg
Arts & Entertainment,ElectroTel Dammam Showroom,,,,"King Abdulaziz St, Al Badi",32415,Dammam,Saudi,SA,,966 13 830 5111,electrotel.com.sa,26.408674,50.0331514,256,1.jpg,2.jpg,3.jpg
Arts & Entertainment,Al Matbouli Sound & Communications (Dammam Showroom),,,,King Khaled St,32242,Dammam,Saudi,SA,,966 13 826 6997,,26.4089474,50.0331512,257,1.jpg,2.jpg,3.jpg
Arts & Entertainment,Samsung & Tecnogas Authorized Showroom,,,,8262 Al Amir Muhammed Ibn Fahd Rd,32241,Dammam,Saudi,SA,webmaster@umg.com.sa,966 13 830 5763,umg.com.sa,26.4092208,50.033151,258,1.jpg,2.jpg,3.jpg
Arts & Entertainment,Safa Aluminium Dammam Showroom,,,,"Al Mazruiyah, 7477 Prince Mohammed Bin Fahd Rd, ",32414,Dammam,Saudi,SA,,966 13 834 3205,safaarc.com,26.4094942,50.0331508,259,1.jpg,2.jpg,3.jpg
Arts & Entertainment,Audi Al Khobar Showroom - SAMACO Automotive,,,,"Qurtoba, King Fahd Rd, 24 St",31952,Al Khobar,Saudi,SA,,966 13 845 8020,audi-saudiarabia.com,26.4097676,50.0331506,260,1.jpg,2.jpg,3.jpg
Arts & Entertainment,LG Naghi - Dammam 3 Showroom ,,,,"Uhud, King saud street",32264,Dammam,Saudi,SA,,,,26.410041,50.0331504,261,1.jpg,2.jpg,3.jpg
Arts & Entertainment,LG Naghi - Khobar3 HWY,,,,"Ar Rakah Ash Shamaliyah, 7991 King Fahd Road, ",34225,Al Khobar ,Saudi,SA,,966 13 859 9930,unitednaghi.com.sa,26.4097676,50.0331506,262,1.jpg,2.jpg,3.jpg
Arts & Entertainment,Toyota Showroom Rakah Area,,,,As Sadafah,34226,Dammam,Saudi,SA,,,,26.4097676,50.0331506,263,1.jpg,2.jpg,3.jpg
Arts & Entertainment,Damam Showroom,,,,King Abdulaziz St,32424,Dammam,Saudi,SA,,,,26.4097676,50.0331506,264,1.jpg,2.jpg,3.jpg
Arts & Entertainment,Yale Showroom D1 NAS,,,,"9th St, Al Dawasir",32415,Dammam,Saudi,SA,,966 13 834 8488,middleeast.yalelock.com,26.4097676,50.0331506,265,1.jpg,2.jpg,3.jpg
Arts & Entertainment,Four Square Showroom,,,,Prince Mohammed St,32242,Al Khobar ,Saudi,SA,,,,26.4097676,50.0331506,266,1.jpg,2.jpg,3.jpg
Arts & Entertainment,"Maromix Showroom, Dammam",,,,Al Aziziyah,32424, Dammam,Saudi,SA,customercare@maromix.com,966 13 817 4195,maromix.com,26.4097676,50.0331506,267,1.jpg,2.jpg,3.jpg
Arts & Entertainment,Al-Howail Tires Showroom,,,,"King Fahd Road, Ghirnatah",32245,Dammam,Saudi,SA,showroom-dammam@alhowail.com,966 13 843 2456,alhowail.com,26.4097676,50.0331506,268,1.jpg,2.jpg,3.jpg
Arts & Entertainment,Bayouni Sanitary Wares Dammam Showroom,,,,"33 16, Al Amamrah",32415,Dammam,Saudi,SA,,966 13 802 7303,,26.4097676,50.0331506,269,1.jpg,2.jpg,3.jpg
Arts & Entertainment,El-Ajou Dammam Showroom,,,,"Prince Mohammed Bin Fahd Road, Al Amir Muhammed Ibn Saud",32241,Al Khobar ,Saudi,SA,,966 13 826 5501,,26.4097676,50.0331506,270,1.jpg,2.jpg,3.jpg
Arts & Entertainment,Jaguar Al Khobar Showroom,,,,"Ar Rakah Al Janubiyah, Khobar Al-Dammam Road",34226,Al Khobar ,Saudi,SA,,966 800 119 0190,jaguar-saudi.com,26.4097676,50.0331506,271,1.jpg,2.jpg,3.jpg
Arts & Entertainment,SAFANA SHOWROOM,,,,"3732 الملك عبد العزيز, Al Badi,",32415,Dammam,Saudi,SA,info@sutrad.com,966 13 826 7674,safanaunited.com,26.4097676,50.0331506,272,1.jpg,2.jpg,3.jpg
Arts & Entertainment,MYNM - BMW Showroom & Service Center,,,,"Qurtoba, New & Certified Pre-Owned Vehicles Showroom & Service Center",34234,"Al Khobar-Dammam H, ",Saudi,SA,bmwgroup@bmw.mynaghi.com,966 800 123 8000,bmw-saudiarabia.com,26.4097676,50.0331506,273,1.jpg,2.jpg,3.jpg
Arts & Entertainment,tadium Sports-University of Dammam,,,,,34211,Dammam,Saudi,SA,,,iau.edu.sa,26.4244124,50.0436952,274,1.jpg,2.jpg,3.jpg
Arts & Entertainment,Al Faleh Sport House,,,,"King Abdulaziz St, Al Aziziyah",32424,Dammam,Saudi,SA,,,,26.4246858,50.043695,275,1.jpg,2.jpg,3.jpg
Arts & Entertainment,Fifa Sports Yards,,,,Al Manar,32274,Dammam,Saudi,SA,,966 55 455 6867,,26.4249591,50.0436948,276,1.jpg,2.jpg,3.jpg
Arts & Entertainment,Faris Grouo Sports Soluations,,,,2186 Abu Azinah Al Sadfi,32416,Dammam ,Saudi,SA,Faris@farisgroup.net,966 53 600 6970,farisgroup.net,26.4255058,50.0436944,277,1.jpg,2.jpg,3.jpg
Arts & Entertainment,Lapangan Turnamen Dammam Cup,,,,Al Buhayrah,31952,Dammam,Saudi,SA,,,dammamcup.news,26.4260525,50.0436939,278,1.jpg,2.jpg,3.jpg
Arts & Entertainment,Dalgan Optics Est. Dammam Branch,,,,Prince Saud Bin Jalawy St,32416,Dammam ,Saudi,SA,,966 13 832 6863,,26.4274192,50.0436929,279,1.jpg,2.jpg,3.jpg
Arts & Entertainment,Al Wazzan Vision Dammam Khaleej,,,,Al Aziziyah,32424,Dammam,Saudi,SA,,966 13 802 3822,,26.4276925,50.0436927,280,1.jpg,2.jpg,3.jpg
Arts & Entertainment,نظارات فرزة,,,,King Khaled St,32241,Al Khobar ,Saudi,SA,ahmedmaher@farzaoptical.com,966 13 832 6673,farzaoptical.com,26.4279658,50.0436925,281,1.jpg,2.jpg,3.jpg
Arts & Entertainment,Vision Express,,,,Othaim Mall,32236,Dammam,Saudi,SA,,966 13 667 8523,alshaya.com,26.4285125,50.0436921,282,1.jpg,2.jpg,3.jpg
Arts & Entertainment,Eyelash Optical,,,,Prince Mohammed Bin Fahd Road,32412,Ash Shati Ash Sharqi,Saudi,SA,,"966 13 819 1560
",ilash.com.sa,26.4287858,50.0436919,283,1.jpg,2.jpg,3.jpg
Arts & Entertainment,eye cool opticals,,,,"71 St, Dammam 2nd Industrial City",34333,Dammam,Saudi,SA,,,,26.2506659,49.9030885,284,1.jpg,2.jpg,3.jpg
Arts & Entertainment,Solaris,,,,Abdullah Fuad,32236,astern province,Saudi,SA,,966 13 831 8098,alshaya.com,26.4298791,50.0436911,285,1.jpg,2.jpg,3.jpg
Arts & Entertainment,ايلاش للبصريات,,,,Abu Bakr Alsiddiq St,32265,Al Khobar ,Saudi,SA,,966 13 818 3355,,26.4301524,50.0436909,286,1.jpg,2.jpg,3.jpg
Arts & Entertainment,"Al Bashawri Opticals
البشاوري",,,,Muhammed Ibn Saud,32241,Dammam,Saudi,SA,,966 13 831 1143,,26.4304258,50.0436907,287,1.jpg,2.jpg,3.jpg
Arts & Entertainment,الكوميدي كلوب Al Comedy Club,,,,Al Athir,32248,Al Khobar ,Saudi,SA,,,,26.3689941,50.0302839,288,1.jpg,2.jpg,3.jpg
Arts & Entertainment,College Of Arts,,,,Prince Nayef Bin Abdulaziz Rd,32256, Dammam ,Saudi,SA,,966 13 333 1111,uod.edu.sa,26.3703618,50.0302828,289,1.jpg,2.jpg,3.jpg
Arts & Entertainment,قناة DMM الفضائية,,,,8911 Omar Ibn Al Khattab St,32271,Al Faisaliyah,Saudi,SA,,,,26.4134846,50.026333,290,1.jpg,2.jpg,3.jpg
Arts & Entertainment,الشبكة التلفزيونية,,,,Prince Nayef Bin Abdulaziz Rd,32256,Al Rayyan,Saudi,SA,,966 13 857 7000,iau.edu.sa,26.413758,50.0263328,291,1.jpg,2.jpg,3.jpg
Arts & Entertainment,Studio Dammam Broadcasting Corporation radio and television,,,,6359 طريق ابو حدرية، Al Manar,32274,Dammam,Saudi,SA,,966 13 811 7340,,26.4140314,50.0263326,292,1.jpg,2.jpg,3.jpg
Arts & Entertainment,RAFEE METAL INDUSTRY,,,,"Dammam Television Complex, Dhahran Jubail Expy, Al Khodaryah",32248,"Dhahran Jubail Expy, ",Saudi,SA,rafeesteel@yahoo.com,966 13 839 3951,rafeemetal.blogspot.com,26.4143047,50.0263324,293,1.jpg,2.jpg,3.jpg
Arts & Entertainment,eXtra,,,,"Al Aziziyah, Al Khaleej Road",32424,Al Khobar ,Saudi,SA,,966 9200 04123,extrastores.com,26.4599606,50.0435182,294,1.jpg,2.jpg,3.jpg
Arts & Entertainment,Mishwar Restaurant,,,,Prince Mohammed Bin Fahd Road,32415,Al Khobar ,Saudi,SA,info@mishwar.com.sa,966 13 805 2222,mishwar.com.sa,26.4515506,50.1149436,295,1.jpg,2.jpg,3.jpg
Arts & Entertainment,KFUPM Mall,,,,"Orientation Path, King Fahd University of Petroleum and Mineral",34463,Al Khobar ,Saudi,SA,,966 13 834 7161,kfupmmall.com,26.3201371,50.1301194,296,1.jpg,2.jpg,3.jpg
Arts & Entertainment,The Secret Room ,,,,"Al Ulaya, Bashar Ibn Burd St",34448,Al Khobar ,Saudi,SA,info@thesecretroomsa.com,966 59 177 1823,thesecretroomsa.com,26.3019431,50.1684638,297,1.jpg,2.jpg,3.jpg
Arts & Entertainment,Live79,,,,southern street,34627,Al Khobar,Saudi,SA,,966 55 103 8104,,26.249588,50.1914453,298,1.jpg,2.jpg,3.jpg
Arts & Entertainment,ALPHA CENTRE,,,,6990 King Fahd Road,34622,Al Khobar Al Janubiyah,Saudi,SA,,966 53 445 0952,,26.2675859,50.2053476,299,1.jpg,2.jpg,3.jpg
Arts & Entertainment,The Secret Room,,,,"Al Ulaya, Bashar Ibn Burd St",34448,Al Khobar ,Saudi,SA,info@thesecretroomsa.com,966 59 177 1823,thesecretroomsa.com,26.3020144,50.1618977,300,1.jpg,2.jpg,3.jpg
Arts & Entertainment,Arabian Collections Gallery,,,,"Prince Faisal Bin Fahd Road Prince Faisal Bin Fahd Road, Doha Al Janubiyah,",34455,Al Khobar ,Saudi,SA,,966 13 868 6142,arabiancollectionsgallery.com,26.3181086,50.1023868,301,1.jpg,2.jpg,3.jpg
Arts & Entertainment,Dhahran Art Group,,,,4155 Riyadh Boulevard,34472,Gharb Al Dhahran,Saudi,SA,,,,26.318254,50.1023868,302,1.jpg,2.jpg,3.jpg
Arts & Entertainment,AJ Nail Art & Beauty Salon,,,,Prince Mohammed Bin Fahd Road,22093,Al Khobar ,Saudi,SA,,966 53 664 5553,business.site,26.3185447,50.1023867,303,1.jpg,2.jpg,3.jpg
Arts & Entertainment,Action Gate,,,,Doha Al Janubiyah,34454,Al Khobar ,Saudi,SA,,966 55 600 0134,facebook.com,26.3241569,50.1529505,304,1.jpg,2.jpg,3.jpg
Arts & Entertainment,DHL,,,,"Eastern Ave, Saudi Aramco",34465,Dhahran,Saudi,SA,,966 9200 03450,dhl.com.sa,26.3067819,50.1165933,305,1.jpg,2.jpg,3.jpg
Arts & Entertainment,Mobily,,,,"Midra Access Rd, Gharb Al Dhahran",31952,Dhahran,Saudi,SA,,966 56 010 1100,mobily.com.sa,26.3067819,50.1165933,306,1.jpg,2.jpg,3.jpg
Arts & Entertainment,STC,,,,"Eastern Ave, Gharb Al Dhahran",34465,Dhahran,Saudi,SA,,966 53 500 0000,stc.com.sa,26.3067819,50.1165933,307,1.jpg,2.jpg,3.jpg
Arts & Entertainment,Fantasy World Toys Souq Sharq,,,,Arabian Gulf St,13141,Safat,Kuwait City,KW,,965 9965 4614,fantasyworldtoys.com,29.2620189,47.8931945,308,1.jpg,2.jpg,3.jpg
Arts & Entertainment,Fantasy World Toys Al Rai,,,,"Ghazali St,
",13141,Safat,Kuwait City,KW,info@fantasyworldtoys.com,965 9002 6387,fantasyworldtoys.com,29.2620189,47.8931945,309,1.jpg,2.jpg,3.jpg
Arts & Entertainment,Toy Triangle,,,,Khalid Ibn Al Waleed St,18253,Kuwait City,Kuwait City,KW,,965 2246 8039,toytriangle.com,29.2620189,47.8931945,310,1.jpg,2.jpg,3.jpg
Arts & Entertainment,Naser Alomar Toys,,,,Kuwait City,31952,Kuwait City,Kuwait City,KW,,965 2243 3122,,29.2620189,47.8931945,311,1.jpg,2.jpg,3.jpg
Arts & Entertainment,Toy Land,,,,Kuwait City,35653,Kuwait City,Kuwait City,KW,,965 2244 3028,,29.2620189,47.8931945,312,1.jpg,2.jpg,3.jpg
Arts & Entertainment,Waleed Toys Company,,,,Kuwait City,31952,Kuwait City,Kuwait City,KW,,,,29.2620189,47.8931945,313,1.jpg,2.jpg,3.jpg
Arts & Entertainment,Sunrise International Co.,,,,Salhiya St,32020,Kuwait City,Kuwait City,KW,info@RainbowMax.com,965 2243 5172,rainbowmax.com,29.2620189,47.8931945,314,1.jpg,2.jpg,3.jpg
Arts & Entertainment,Fantasy World Toys Al Bustan,,,,Al Bustan Mall Bldg Compound,13141,Salem Al Mubarak St,Kuwait City,KW,info@fantasyworldtoys.com,965 9002 6387,fantasyworldtoys.com,29.2620189,47.8931945,315,1.jpg,2.jpg,3.jpg
Arts & Entertainment,LEGO Store,,,,"Mutlaq Abbas Munawir St,",13141,Kuwait City,Kuwait City,KW,,965 2259 7408,lego.com,29.2620189,47.8931945,316,1.jpg,2.jpg,3.jpg
Arts & Entertainment,Baroue,,,,Discovery Mall First Ring Rd,31952,Kuwait City,Kuwait,KW,,965 6511 0932,,29.2620189,47.8931945,317,1.jpg,2.jpg,3.jpg
Arts & Entertainment,Fantasy World Toys Boulevard,,,,"Al Khansa St,",13141,Kuwait City,Kuwait City,KW,,965 9725 2149,fantasyworldtoys.com,29.2620189,47.8931945,318,1.jpg,2.jpg,3.jpg
Arts & Entertainment,Hamar Hobby Shuwaikh,,,,Bank Street,13020,Shuwaikh kuwait,Kuwait City,KW,info@alhamar-hobby.com,965 2483 1083,alhamar-hobby.com,29.2620189,47.8931945,319,1.jpg,2.jpg,3.jpg
Arts & Entertainment,Games world,,,,Kuwait City,13141,Kuwait City,Kuwait City,KW,,965 2245 3125,,29.2620189,47.8931945,320,1.jpg,2.jpg,3.jpg
Arts & Entertainment,101 Dalmatians,,,,Kuwait City,17860,Kuwait City,Kuwait City,KW,,,,29.2620189,47.8931945,321,1.jpg,2.jpg,3.jpg
Arts & Entertainment,Bousaleh Hobbies,,,,Kuwait City,34448,Kuwait City,Kuwait City,KW,,965 2240 5086,instagram.com,29.2620189,47.8931945,322,1.jpg,2.jpg,3.jpg
Arts & Entertainment,Kuwait's Opera House,,,,Kuwait,22093,Kuwait City,Kuwait City,KW,,965 2483 5822,jacc-kw.com,29.316644,47.932375,323,1.jpg,2.jpg,3.jpg
Arts & Entertainment,Magic Planet Kuwait,,,,The Avenues Mall,12339,Kuwait City,Kuwait City,KW,,965 2259 7942,theplaymania.com,29.1869983,47.7431052,324,1.jpg,2.jpg,3.jpg
Arts & Entertainment,Kuwait Towers,,,,Arabian Gulf St,22093,Kuwait City,Kuwait City,KW,pr@tec.com.kw,965 2496 5500,kuwaittourism.com,29.3459423,47.9235723,325,1.jpg,2.jpg,3.jpg
Arts & Entertainment,Ice Skating Rink,,,,Al-Soor St,34448,Kuwait City,Kuwait City,KW,pr@tec.com.kw,965 2241 1151,kuwaittourism.com,29.346205,47.9235722,326,1.jpg,2.jpg,3.jpg
Arts & Entertainment,Tareq Rajab Museum of Islamic Calligraphy,,,,Kuwait City,34448,Kuwait City,Kuwait City,KW,museum@trmkt.com,965 2531 7358,trmkt.com,29.3464677,47.923572,327,1.jpg,2.jpg,3.jpg
Arts & Entertainment,The Mirror House,,,,"94 17 St,",35809,Kuwait City,Kuwait City,KW,mirrorhouseq8@gmail.com,965 2251 8522,mirrorhouseq8.com,29.3467304,47.9235718,328,1.jpg,2.jpg,3.jpg
Arts & Entertainment,Al Shaheed Park,,,,Soor St,22093,Kuwait City,Kuwait City,KW,info@alshaheedpark.com,965 2246 1267,alshaheedpark.com,29.3469931,47.9235716,329,1.jpg,2.jpg,3.jpg
Arts & Entertainment,The Grand Mosque of Kuwait,,,,"25, Kuwait City",34448,Kuwait City,Kuwait City,KW,,965 2298 0800,masajed.gov.kw,29.3475184,47.9235712,330,1.jpg,2.jpg,3.jpg
Arts & Entertainment,Reham Gallery,,,, Abu Bakr St,22093,"Al Kuwayt, ",Kuwait City,KW,,965 9800 7010,,29.3477811,47.923571,331,1.jpg,2.jpg,3.jpg
Arts & Entertainment,Cozmo Entertainment (Discovery Mall),,,,Abdulla Al Mubarak St,14513,Kuwait City,Kuwait City,KW,,965 2574 4975,cozmogroup.com,29.376174,47.9643571,332,1.jpg,2.jpg,3.jpg
Arts & Entertainment,COZMO ENTERTAINMENT COMPANY,,,,Kaifan Kuwait Sport Club,14513,Kuwait,Kuwait City,KW,info@cozmogroup.com,965 1885 888,cozmogroup.com,29.3762465,47.9643571,333,1.jpg,2.jpg,3.jpg
Arts & Entertainment,Puppet Kingdom,,,,Kuwait City,34448,Kuwait City,Kuwait City,KW,,965 9711 8055,puppetkingdom.net,29.376174,47.9643571,334,1.jpg,2.jpg,3.jpg
Arts & Entertainment,Future Kid Entertainment & Real Estate Company,,,,Kuwait Free Trade Zone,34448,Kuwait City,Kuwait City,KW,hananaly@futurekid.com,965 2461 0045,futurekid.com.kw,29.3509829,47.8911423,335,1.jpg,2.jpg,3.jpg
Arts & Entertainment,Fountain Park,,,,First Ring Rd,11883,Kuwait City,Kuwait City,KW,,965 2246 3732,,29.376174,47.9643571,336,1.jpg,2.jpg,3.jpg
Arts & Entertainment,Way Out Kuwait,,,," Ahmad Al Jaber Street, Baitek Tower",14000,Mezzanine,Kuwait City,KW,info@wayoutkwt.com,965 9878 8203,wayoutkwt.com,29.376174,47.9643571,337,1.jpg,2.jpg,3.jpg
Arts & Entertainment,Cartoon Network World,,,,Kuwait City,14513,Kuwait City,Kuwait City,KW,,965 2243 0630,,29.376174,47.9643571,338,1.jpg,2.jpg,3.jpg
Arts & Entertainment,Live Theater,,,,Discovery mall,12170,Basement floor,Kuwait City,KW,,965 502 00300,livekuwait.com,29.376174,47.9643571,339,1.jpg,2.jpg,3.jpg
Arts & Entertainment,Stay Foolish Productions,,,,Abdulla Al Mubarak St,22093,Kuwait City,Kuwait,KW,contact@stayfoolish.net,965 2246 1788,stayfoolish.net,29.376174,47.9643571,340,1.jpg,2.jpg,3.jpg
Arts & Entertainment,Panorama Consulting and Business Solutions,,,,"Global Tower, Al-Shuhada Street",13058,"13 Al-Shuhada St, Kuwait City,",Kuwait City,KW,,965 2295 1796,panoramacbs.com,29.3753548,47.9856962,341,1.jpg,2.jpg,3.jpg
Arts & Entertainment,The Sultan Gallery Kuwait,,,,168 Mubarak Al Kabeer St,22093,Kuwait City,Kuwait City,KW,sultangallery1969@gmail.com,965 2471 4325,sultangallery.com,29.3083106,47.9256119,342,1.jpg,2.jpg,3.jpg
Arts & Entertainment,Contemporary Art Platform,,,,2 Shuwaikh Industrial,34448,Kuwait City,Kuwait City,KW,info@capkuwait.com,965 2492 5636,capkuwait.com,29.3083106,47.9256119,343,1.jpg,2.jpg,3.jpg
Arts & Entertainment,Museum of Modern Art,,,,Ibraheem Al Mudhaf St,22093,Kuwait City,Kuwait City,KW,info@nccal.gov.kw,965 2292 9444,nccal.gov.kw,29.3083106,47.9256119,344,1.jpg,2.jpg,3.jpg
Arts & Entertainment,AL M. Gallery,,,,Mohammad Thunayyan St,34448,Kuwait City,Kuwait City,KW,,965 2299 6447,,29.3083106,47.9256119,345,1.jpg,2.jpg,3.jpg
Arts & Entertainment,Dar Al Funoon,,,,Kuwait City,13058,Kuwait City,Kuwait City,KW,,965 9008 8402,,29.3083106,47.9256119,346,1.jpg,2.jpg,3.jpg
Arts & Entertainment,Center of the Art*,,,,"Block 1 , Plot 21, Al Usaimi Complex، 6th Street",22093,Shuwaikh Industrial,Kuwait City,KW,info@artkuwait.com.kw,965 2228 2130,artkuwait.com.kw,29.3083106,47.9256119,347,1.jpg,2.jpg,3.jpg
Arts & Entertainment,Free Art Atelier,,,,Arabian Gulf St,22093,Kuwait City,Kuwait,KW,,,,29.3083106,47.9256119,348,1.jpg,2.jpg,3.jpg
Arts & Entertainment,THE HUB Gallery,,,,2 25,14513,Kuwait City,Kuwait City,KW,,965 2249 8999,thefagallery.com,29.3891817,47.9176802,349,1.jpg,2.jpg,3.jpg
Arts & Entertainment,Boushahri Art Gallery,,,,Salmiya,22093,Kuwait City,Kuwait City,KW,,965 2562 1119,,29.3083106,47.9256119,350,1.jpg,2.jpg,3.jpg
Arts & Entertainment,Aseel's Studio,,,,Hamad Al Saqer St,14513,Kuwait City,Kuwait City,KW,,,aseelalyaqoub.com,29.3083106,47.9256119,351,1.jpg,2.jpg,3.jpg
Arts & Entertainment,Friday market,,,,Kuwait City,22093,Kuwait City,Kuwait City,KW,,965 9983 1447,kw.fridaymarket.com,29.3128068,47.9528811,352,1.jpg,2.jpg,3.jpg
Arts & Entertainment,Iranian Market,,,,325-337 37 St,34448,Kuwait City,Kuwait City,KW,,,,29.3124203,,353,1.jpg,2.jpg,3.jpg
Arts & Entertainment,Flower Market,,,,Mutlaq Abbas Munawir St,22093,Kuwait City,Kuwait City,KW,,"965 566 41361


 


 
","flowermarketkwt.business.site
",29.3056803,47.9370192,354,1.jpg,2.jpg,3.jpg
Arts & Entertainment,Dubai Textile Market,,,,Kuwait City,34448,Kuwait City,Kuwait City,KW,,93 55 502 0751,,29.3758326,47.9677593,355,1.jpg,2.jpg,3.jpg
Arts & Entertainment,Carrefour Fintas,,,,"Kuwait, Mubarak Al Kabeer Governorate",14513,Al Liwan Mall,Kuwait City,KW,,965 2259 8233,carrefourkuwait.com,29.1746142,48.093227,356,1.jpg,2.jpg,3.jpg
Arts & Entertainment,Olive Super Market,,,,"Kuwait City,",14513,Kuwait City,Kuwait City,KW,,965 2489 8901,oliveretail.com,29.3061534,47.9116006,357,1.jpg,2.jpg,3.jpg
Arts & Entertainment,Lulu Hypermarket,,,,Al-Dajeej Dar Al Amjad shop,22093,Kuwait,Kuwait,KW,mail@kw.lulumea.com,965 2475 9333,kuwait.luluhypermarket.com,29.3128161,47.9528811,358,1.jpg,2.jpg,3.jpg
Arts & Entertainment,"Shuwaikh Market
شويخ ماركت",,,,5th Street,14513,Shuwaikh Industrial,Kuwait City,KW,,965 2221 6944,shuwaikhmarket.com,29.3418413,47.9354257,359,1.jpg,2.jpg,3.jpg
Arts & Entertainment,Dhuha Al-Kuwait Mini Super Market,,,,28 St,22093,Farwaniya,Kuwait City,KW,,965 6093 9078,,29.2737677,47.9631476,360,1.jpg,2.jpg,3.jpg
Arts & Entertainment,Carrefour Jleeb,,,,"Kuwait, Farwaniya Governorate, Souk Al jleeb",34448,Souk Al jleeb,Kuwait City,KW,,965 2259 8233,carrefourkuwait.com,29.246129,47.9349903,361,1.jpg,2.jpg,3.jpg
Arts & Entertainment,Grand hyper market,,,,Wattiyah St,22093,Kuwait City,Kuwait City,KW,,965 2247 4571,,29.3626162,47.9609002,362,1.jpg,2.jpg,3.jpg
Arts & Entertainment,مسرح الشيخ دعيج الخليفة الصباح,,,,,14513,Kuwait City,Kuwait City,KW,,,,29.3577713,47.9408069,363,1.jpg,2.jpg,3.jpg
Arts & Entertainment,Abdulhussain Abdulridha Theater,,,,Hamad Al-Mubarak St,22093,Salmiya,Kuwait City,KW,,,,29.358034,47.9408067,364,1.jpg,2.jpg,3.jpg
Arts & Entertainment,Labor Syndicate Theater,,,,Abdulla Al Faraj St,14513,Salmiya,Kuwait City,KW,,,froggyco.net,29.3582966,47.9408065,365,1.jpg,2.jpg,3.jpg
Arts & Entertainment,ABB Kuwait,,,,Alghunaim tower برج الغنيم. Abu Naker St,22093,Kuwait City,Kuwait,KW,,965 2227 7999,abb.com,29.3628875,47.9616791,366,1.jpg,2.jpg,3.jpg
Arts & Entertainment,Mitsubishi electric kuwait office,,,,al-salam tower 2nd floor Al-Salem Street,14000,Al Kuwayt,Kuwait City,KW,,965 2240 6082,,29.3628875,47.9616791,367,1.jpg,2.jpg,3.jpg
Arts & Entertainment,Hassan's Optician Co.,,,,"Wataniya Tower, Fahad Al Salem Street",14513,Kuwait City,Kuwait City,KW,,965 2246 4734,hassans.com,29.376174,47.9643571,368,1.jpg,2.jpg,3.jpg
Arts & Entertainment,Kefan Optics,,,,Al-Shuhada St,34448,Kuwait City,Kuwait City,KW,info@kefan-optics.com,965 2227 0274,kefan-optics.com,29.376319,47.9643571,369,1.jpg,2.jpg,3.jpg
Arts & Entertainment,International Optique,,,,Omar Bin Al Khattab St,70050,Kuwait City,Kuwait City,KW,,965 2299 7657,,29.3763915,47.964357,370,1.jpg,2.jpg,3.jpg
Arts & Entertainment,Etheos Optician,,,,Fahaheel,14513,Kuwait City,Kuwait City,KW,,965 552 23747,,29.376464,47.964357,371,1.jpg,2.jpg,3.jpg
Arts & Entertainment,International Optique Company,,,,"Salmiya Block 4, Salem Al Mubarak Street Central Plaza Building",70050,Salmiya,Kuwait City,KW,,965 2572 2980,intoptic.com,29.3444272,48.0629539,372,1.jpg,2.jpg,3.jpg
Arts & Entertainment,Grand Cinemas,,,,Hamra Luxury Center,70050,"Al Kuwayt, ",Kuwait City,KW,,965 2227 0333,grandcinemasme.com,29.3766815,47.964357,373,1.jpg,2.jpg,3.jpg
Arts & Entertainment,Al-Fanar Cinema,,,,Hamra Luxury Center، Al-Shuhada St,14000," Al Kuwayt, ",Kuwait City,KW,,965 1803 456,cinescape.com.kw,29.3407704,48.0560553,374,1.jpg,2.jpg,3.jpg
Arts & Entertainment,Cinescape Avenues Cinema,,,,2nd Floor,34448,Kuwait City,Kuwait City,KW,,965 1803 456,cinescape.com.kw,29.3026464,47.9121279,375,1.jpg,2.jpg,3.jpg
Arts & Entertainment,Dasma Theatre,,,,Salem Al Jumain st,70050,Kuwait City,Kuwait,KW,,,,29.376899,47.964357,376,1.jpg,2.jpg,3.jpg
Arts & Entertainment,"Ashraf & Co. Ltd., Dar Al Awadi Showroom",,,,Dar Al Awadi Tower,14513,Kuwait City,Kuwait City,KW,aig@ashraf.com,965 2241 2180,nikon.com.kw,29.3770441,47.9643569,377,1.jpg,2.jpg,3.jpg
Arts & Entertainment,H&S Showroom Sharq,,,,Khalid Bin Alwaleed Str.,34448,Kuwait City,Kuwait City,KW,,965 2242 4222,hsstorekw.com,29.3770418,47.9643569,378,1.jpg,2.jpg,3.jpg
Arts & Entertainment,GMC Showroom Sharq,,,,"Al Kuwayt, ",14513,Kuwait City,Kuwait City,KW,,965 1884 411,behbehanigmc.com,29.3771143,47.9643569,379,1.jpg,2.jpg,3.jpg
Arts & Entertainment,"American Tourister Showroom, Souk Al Kabir, Kuwait City",,,,"Souq Al Kabeer Complex, Fahad Al-Salem Street, ",70050,Kuwait City,Kuwait City,KW,,965 2224 1436,americantourister.com,29.3771868,47.9643569,380,1.jpg,2.jpg,3.jpg
Arts & Entertainment,Alghanim Automotive- Chevrolet Showroom Sharq,,,,"Sharq Industrial Area, Block 2, Bldg 32، Omar Ben Al Khattab St",,Al Kuwayt,Kuwait City,KW,,965 2496 9000,chevrolet.alghanimauto.com,29.3772593,47.9643569,381,1.jpg,2.jpg,3.jpg
Arts & Entertainment,TriStar Showroom,,,,Soor St,70050,Kuwait City,Kuwait City,KW,,965 2240 5194,,29.3773318,47.9643569,382,1.jpg,2.jpg,3.jpg
Arts & Entertainment,Mercedes-Benz Kuwait (Showroom),,,,"
Jahra Road, Highway 80",70050,Kuwait City ,Kuwait City,KW,,965 2495 0000,mercedesbenzme.com,29.335742,47.9184175,383,1.jpg,2.jpg,3.jpg
Arts & Entertainment,Alghanim Used Car Showroom ,,,,,34448,Kuwait City,Kuwait City,KW,,965 1800 022,chevroletalghanim.com,29.3774768,47.9643568,384,1.jpg,2.jpg,3.jpg
Arts & Entertainment,Korloff Showroom - Behbehani - Al Hamra Luxury,,,,Shop No.M 02 Sharq Mezzanine floor Al Hamra Luxury Center,14000,Kuwait City,Kuwait City,KW,,"965 2227 0223
",goo.gl,29.3771166,47.9643569,385,1.jpg,2.jpg,3.jpg
Arts & Entertainment,Q7 Mobile Co. Outlet - Kuwait City,,,,Kuwait City,70050,Kuwait City,Kuwait City,KW,info@q7kuwait.com,965 6648 6649,q7kuwait.com,29.3771891,47.9643569,386,1.jpg,2.jpg,3.jpg
Arts & Entertainment,Baiti Synergy Showroom,,,,"Al Sanea Tower, Floor 16, Block 8, Street, 153",14000,Kuwait City,Kuwait City,KW,info@baitikw.com,965 6772 2206,baitikw.com,29.376754,47.964357,387,1.jpg,2.jpg,3.jpg
Arts & Entertainment,INFINITI Showroom - Al Babtain,,,,"Al Rai, Block 3, Car Dealer Rd",13008,Kuwait City,Kuwait City,KW,,965 1804 888,infiniti-kuwait.com,29.3137926,47.9195379,388,1.jpg,2.jpg,3.jpg
Arts & Entertainment,Audemars Piguet,,,,"Ahmed Behbehani Showroom, Shop n°4, block n°4, Ground floor",13006,Kuwait City,Kuwait City,KW,,965 2244 1716,audemarspiguet.com,29.376899,47.964357,389,1.jpg,2.jpg,3.jpg
Arts & Entertainment,Audi Kuwait Showroom & Service,,,,Shuwaikh Industrial Area Street Nr 11 Block Nr 11 Building Nr 56A,14000,Kuwait City,Kuwait City,KW,,965 1811 118,audi-kuwait.com,29.332606,47.9168725,390,1.jpg,2.jpg,3.jpg
Arts & Entertainment,Al Haramain Perfumes Int’l W.L.L,,,,Kuwait City,34448,Kuwait City,Kuwait City,KW,info@alharamainperfumes.com,965 2247 7887,alharamainperfumes.com,29.3769715,47.9643569,391,1.jpg,2.jpg,3.jpg
Arts & Entertainment,G-SHOCK Boutique,,,,,70050,Kuwait City,Kuwait City,KW,info@al-batel.com,965 2241 9419,al-batel.com,29.3769715,47.9643569,392,1.jpg,2.jpg,3.jpg
Arts & Entertainment,Morad Yousuf Behbehani Watches Showroom,,,,Shop No. 26-28 Souk Sharq,39958,Kuwait City,Kuwait City,KW,,965 1820 140,goo.gl,29.3769715,47.9643569,393,1.jpg,2.jpg,3.jpg
Arts & Entertainment,Al Sayer Spare parts showroom,,,,Kuwait City,39958,Kuwait City,Kuwait City,KW,,,,29.3769715,47.9643569,394,1.jpg,2.jpg,3.jpg
Arts & Entertainment,Cinescape 360 Cinema,,,,3rd Floor، Jassem Mohammad Al-Kharafi Rd,14000,Kuwait City,Kuwait City,KW,,965 1803 456,cinescape.com.kw,29.2142083,47.892883,395,1.jpg,2.jpg,3.jpg
Arts & Entertainment,Kuwait Little Theatre,,,,Main Street,14000,Kuwait City,Kuwait City,KW,,965 9937 3678,theklt.com,29.2146618,47.8928823,396,1.jpg,2.jpg,3.jpg
Arts & Entertainment,Cinescape Ajial,,,,Fahaheel,14513,Kuwait City,Kuwait City,KW,,965 1803 456,cinescape.com.kw,29.2151152,47.8928815,397,1.jpg,2.jpg,3.jpg
Arts & Entertainment,Cinescape Plaza Cinema,,,,Salmiya,70050,Kuwait City,Kuwait City,KW,,965 1803 456,cinescape.com.kw,29.2160221,47.8928799,398,1.jpg,2.jpg,3.jpg
Arts & Entertainment,Salmeen Musical Instruments,,,,Salmiya,34448,Kuwait City,Kuwait City,KW,,965 9966 0318,salmeenmusic.com,29.2200189,47.8947083,399,1.jpg,2.jpg,3.jpg
Arts & Entertainment,Zeriab Music Store,,,,"
46 St",39958,Kuwait City,Kuwait City,KW,,965 2262 7707,,29.2200189,47.8947083,400,1.jpg,2.jpg,3.jpg
Arts & Entertainment,Yamaha Music Square,,,,Kuwait City,34448,Kuwait City,Kuwait City,KW,,965 2220 0694,,29.2200189,47.8947083,401,1.jpg,2.jpg,3.jpg
Arts & Entertainment,Kalabhavan,,,,6 St. 1 Ln,70050,Kuwait City,Kuwait City,KW,,,,29.2200189,47.8947083,402,1.jpg,2.jpg,3.jpg
Arts & Entertainment,"Kalabhavan Music Training Institute,",,,,11 6 St,14513,Kuwait City,Kuwait City,KW,,965 2565 8204,,29.2200189,47.8947083,403,1.jpg,2.jpg,3.jpg
Arts & Entertainment,Sound Of Music,,,,Yousef Al Bader St. 5 Ln,39958,Salmiya,Kuwait City,KW,,965 6661 6542,cnxn.tv,29.2200189,47.8947083,404,1.jpg,2.jpg,3.jpg
Arts & Entertainment,Institute of Academic Art & Musical Sciences,,,,"
P.O. Box: 35747 Al-Shaeb",36058,Kuwait City,Kuwait City,KW,,,,,,405,1.jpg,2.jpg,3.jpg
Arts & Entertainment,Cinema Muhallab Cinescape K.N.C.C,,,,Al-Muhallab Mall,39958,Kuwait City,Kuwait City,KW,,965 1803 456,kncc.com,29.2256084,47.8928869,406,1.jpg,2.jpg,3.jpg
Arts & Entertainment,Cinescape Marina Cinema,,,,Salmiya,70050,Kuwait City,Kuwait City,KW,,965 1803 456,cinescape.com.kw,29.2256084,47.8928869,407,1.jpg,2.jpg,3.jpg
Arts & Entertainment,Sky Cinema,,,,Salmiya,14513,Kuwait City,Kuwait City,KW,info@skycinemaskw.com,965 2228 7999,skycinemaskw.com,29.2256084,47.8928869,408,1.jpg,2.jpg,3.jpg
Arts & Entertainment,GRAND CINEMAS - Grand Gate-Eqaila,,,,Eqaila,14000,Kuwait City,Kuwait City,KW,,965 2205 6464,kw.grandcinemasme.com,29.2256084,47.8928869,409,1.jpg,2.jpg,3.jpg
Arts & Entertainment,Cinemagics,,,,22 Salem Al Mubarak Street Al,39958,Salmiya,Kuwait City,KW,info@cinemagics.com,965 2572 0945,cinemagics.com,29.2256084,47.8928869,410,1.jpg,2.jpg,3.jpg
Arts & Entertainment,GamesQ8.com,,,,Tunisia St,21540,Mezzanine,Kuwait City,KW,CS@GAMESQ8.com,965 9559 2299,gamesq8.com,29.2260618,47.8928861,411,1.jpg,2.jpg,3.jpg
Arts & Entertainment,GIANTS Gaming Lounge,,,,Mangaf,39958,Kuwait City,Kuwait City,KW,info@giantsgl.com,965 2229 9200,giantsgl.com,29.2265151,47.8928853,412,1.jpg,2.jpg,3.jpg
Arts & Entertainment,TeamEscape Kuwait,,,,Salmiya,14513,Kuwait City,Kuwait City,KW,,965 550 64422,teamescape.com,29.2274218,47.8928837,413,1.jpg,2.jpg,3.jpg
Arts & Entertainment,E Games Store,,,,Al-Soor Street,14513,Kuwait City,Kuwait City,KW,,965 2291 3666,e-gamesstore.com,29.2278751,47.8928829,414,1.jpg,2.jpg,3.jpg
Arts & Entertainment,Digumz Computer Company,,,,"Tunis St, hawali, Rehab Complex, floor 7 office 703, ",21540,Kuwait City,Kuwait City,KW,,,,29.2261177,47.8141524,415,1.jpg,2.jpg,3.jpg
Arts & Entertainment,Aalam Alsaada For Video Games,,,,Khalid Ibn Al Waleed St,21540,Kuwait City,Kuwait City,KW,,965 2243 6996,,29.2278751,47.8928829,416,1.jpg,2.jpg,3.jpg
Arts & Entertainment,Quadra,,,,Hawally,34448,Kuwait City,Kuwait City,KW,info@quadrastores.com,965 2221 0454,quadrastores.com,29.2278751,47.8928829,417,1.jpg,2.jpg,3.jpg
Arts & Entertainment,Kraken Gaming Lounge,,,,First Ring Rd,34448,Kuwait City,Kuwait City,KW,,,kraken-gaming.com,29.2278751,47.8928829,418,1.jpg,2.jpg,3.jpg
Arts & Entertainment,Plugged Gaming,,,,"1st Floor, Opposite Ministry of Communications، Beirut Street,",70050,Hawally,Kuwait,KW,pluggedq8@gmail.com,965 566 80230,pluggedgaming.com,29.2278751,47.8928829,419,1.jpg,2.jpg,3.jpg
Arts & Entertainment,Future Kids Branch REMAL Mall,,,,"Remal Mall Kuwait, Mekka St",21540,Fahaheel,Kuwait City,KW,hananaly@futurekid.com,22264747,futurekid.com.kw,29.2278751,47.8928829,420,1.jpg,2.jpg,3.jpg
Arts & Entertainment,Room Of Clues,,,,Salmiya,34448,Kuwait City,Kuwait City,KW,,965 2573 8070,,29.2278751,47.8928829,421,1.jpg,2.jpg,3.jpg
Arts & Entertainment,Trapped Inn symphony complex,,,,Salmiya,21540,Kuwait City,Kuwait City,KW,contact@trappedinn.com,965 2577 0518,trappedinn.com,29.2278751,47.8928829,422,1.jpg,2.jpg,3.jpg
Arts & Entertainment,EclipsE Gaming Café,,,,First Ring Rd,39958,Kuwait City,Kuwait City,KW,,,,29.2278751,47.8928829,423,1.jpg,2.jpg,3.jpg
Arts & Entertainment,Flow House Kuwait,,,,Salem Sabah Al Salem Al Sabah St,39958,Mahboula,Kuwait City,KW,,965 2239 2238,flowhousekw.com,29.2283284,47.8928821,424,1.jpg,2.jpg,3.jpg
Arts & Entertainment,OX Adventure,,,,"Tamem Tower, Floor 9",34448,Kuwait City,Kuwait City,KW,INFO@OXADVENTURE.COM,965 9099 8807,oxadventure.com,29.2287818,47.8928813,425,1.jpg,2.jpg,3.jpg
Arts & Entertainment,Rehab- Dandies Home Ground,,,,Kuwait City,34448,Kuwait City,Kuwait City,KW,,,,29.2292351,47.8928805,426,1.jpg,2.jpg,3.jpg
Arts & Entertainment,Slayil Al Jahra Park,,,,"Slayil Al Jahra District Street No. 625, Slayil, Block No. 3 Kuwait، 625",39958,Al Jahra,Kuwait ,KW,,965 2457 4879,,29.3601096,47.5105905,427,1.jpg,2.jpg,3.jpg
Arts & Entertainment,Aqua Park,,,,"Arabian Gulf St, Kuwait City",15400,Kuwait City,Kuwait City,KW,,965 2243 1960,aquaparkq8.blogspot.com,29.3915658,47.8635163,428,1.jpg,2.jpg,3.jpg
Arts & Entertainment,KidZania Kuwait,,,,Grand Avenues,21540, Farwaniya,Kuwait City,KW,,965 2228 3180,kuwait.kidzania.com,29.2301417,47.8928789,429,1.jpg,2.jpg,3.jpg
Arts & Entertainment,Marah Land Leisure Park,,,,Kuwait,39958,Kuwait City,Kuwait City,KW,,965 2362 4500,,29.2301417,47.8928789,430,1.jpg,2.jpg,3.jpg
Arts & Entertainment,Future Kid,,,,Hawally,34448,Kuwait City,Kuwait City,KW,info@aatgkwt.com,965 2226 4747,futurekid.com.kw,29.230595,47.8928781,431,1.jpg,2.jpg,3.jpg
Arts & Entertainment,Al Shaab Amusement Park,,,,Salmiya,34448,Salmiya,Kuwait City,KW,,965 2561 3777,,29.2310483,47.8928773,432,1.jpg,2.jpg,3.jpg
Arts & Entertainment,Kids Village,,,,Farwaniya,39958,Kuwait City,Kuwait City,KW,,965 2473 8445,,29.2310483,47.8928773,433,1.jpg,2.jpg,3.jpg
Arts & Entertainment,Freej Alhayal,,,,Abu Halifa,34448,"Kuwait City,",Kuwait City,KW,,,aatgkwt.com,29.2310483,47.8928773,434,1.jpg,2.jpg,3.jpg
Arts & Entertainment,Al Messila Water Village,,,,Messila,21540,"Kuwait City,",Kuwait City,KW,,965 2565 1515,,29.2310483,47.8928773,435,1.jpg,2.jpg,3.jpg
Arts & Entertainment,Kuwait Magic,,,,Abu Halifa,34448,"Kuwait City,",Kuwait City,KW,,965 2372 1219,aatgkwt.com,29.2310483,47.8928773,436,1.jpg,2.jpg,3.jpg
Arts & Entertainment,SkyZone Kuwait,,,,Rabia,39958,"Kuwait City,",Kuwait City,KW,,965 2221 9099,skyzone.com,,,437,1.jpg,2.jpg,3.jpg
Arts & Entertainment,Kuwait Clue,,,,Salem Al Mubarak St,34448,"Kuwait City,",Kuwait City,KW,info@kuwaitclue.com,965 9987 5912,kuwaitclue.com,29.2389106,47.9076696,438,1.jpg,2.jpg,3.jpg
Arts & Entertainment,blizzard gaming lounge,,,,Mohammad Thunayyan Al-Ghanem St,34448, Kuwait City,Kuwait City,KW,,965 552 06590,instagram.com,29.2429895,47.9076624,439,1.jpg,2.jpg,3.jpg
Arts & Entertainment,Al-Dostour Law Firm,,,,Al-Shaab Gulf-Road Al-dana Plaza complex 3rd floor office، 304,21540, Kuwait City,Kuwait City,KW,info@al-dostour.com,965 2266 7374,al-dostour.com,29.3694987,47.990605,440,1.jpg,2.jpg,3.jpg
Arts & Entertainment,Al Markaz Law Firm,,,,Ahmad Al Jaber St,34448, Kuwait City,Kuwait City,KW,info@markazlaw.com,965 2246 4640,markazlaw.com,29.3695712,47.990605,441,1.jpg,2.jpg,3.jpg
Arts & Entertainment,Arsan Advocates & Legal Consultants,,,,Ahmad Al Jaber St,21540,Kuwait City,Kuwait City,KW,info@arsanlaw.com,965 2246 9091,arsanlaw.com,29.3803038,47.9778433,442,1.jpg,2.jpg,3.jpg
Arts & Entertainment,Al Adwani Law Firm,,,,"Injazzat Tower, 40 Khalid Ibn Al Waleed St",21540,Kuwait City,Kuwait City,KW,info@aladwanilawfirm.com,965 2227 5475,aladwanilawfirm.com,29.3803223,47.9778433,443,1.jpg,2.jpg,3.jpg
Arts & Entertainment,Musical Fountain,,,,Kuwait City,21540,Kuwait City,Kuwait City,KW,,,jacc-kw.com,29.380347,47.964711,444,1.jpg,2.jpg,3.jpg
Arts & Entertainment,Almirgab Productions,,,,Kuwait city Almirgab star tower,34448,Kuwait City,Kuwait City,KW,info@AinKw.com,965 9441 7100,almirgab.com,29.3803493,47.964711,445,1.jpg,2.jpg,3.jpg
Arts & Entertainment,MijoBooks LTD.,,,,"Kuwait City, Almirgab, Star Tower",42188,Kuwait City,Kuwait City,KW,,965 2232 2997,mijobooks.com,29.3803493,47.964711,446,1.jpg,2.jpg,3.jpg
Arts & Entertainment,"Center of the Art*
",,,,"Block 1 , Plot 21, Al Usaimi Complex، 6th Street, ",42188,Shuwaikh Industrial,Kuwait City,KW,info@artkuwait.com.kw,965 2228 2130,artkuwait.com.kw,29.3578964,47.9758276,447,1.jpg,2.jpg,3.jpg
Arts & Entertainment,JACC National Theater المسرح الوطنى,,,,"Block 1 , Plot 21, Al Usaimi Complex، 6th Street, ",42188,Shuwaikh Industrial,Kuwait City,KW,,,jacc-kw.com,29.376174,47.9643571,448,1.jpg,2.jpg,3.jpg
Arts & Entertainment,Dive Caroline Kuwait,,,,Fahaheel,34448,Kuwait City,Kuwait City,KW,derron@divecaroline.org,965 6687 5442,divecaroline.org,29.2537216,47.9147668,449,1.jpg,2.jpg,3.jpg
Arts & Entertainment,Slayil Al Jahra Park - 'THE 99' Village,,,,"Slayil Al Jahra District Street No. 625, Slayil",21540,Kuwait City,Kuwait City,KW,,965 2457 4879,,29.3601096,47.5105905,450,1.jpg,2.jpg,3.jpg
Arts & Entertainment,Land Kids,,,,Mubarak Al ,14000,Al Kuwayt ,Kuwait City,KW,,965 2246 8782,,29.2532835,47.9147647,451,1.jpg,2.jpg,3.jpg
Arts & Entertainment,Future kid Co,,,,,34448,Kuwait City,Kuwait City,KW,,965 2226 4747,,29.3710051,47.8382439,452,1.jpg,2.jpg,3.jpg
Arts & Entertainment,games and rides,,,,#14/1 1st floor،,14000,Salmiya,Kuwait City,KW,hananaly@futurekid.com,965 2571 4383,futurekid.com.kw,29.3714571,47.8382431,453,1.jpg,2.jpg,3.jpg
Arts & Entertainment,Personal Computer Center,,,,"35-Ground Floor, Lulwa Bin Khaldun Complex",32074,Hawally,Kuwait City,KW,,965 9753 4123,pckuwait.com,29.2282388,47.9073963,454,1.jpg,2.jpg,3.jpg
Arts & Entertainment,Sylvanas Gaming Center,,,,Kuwait,21540,Kuwait City,Kuwait City,KW,,965 2225 0095,,29.2282388,47.9073963,455,1.jpg,2.jpg,3.jpg
Arts & Entertainment,Slayil Al Jahra Park ,,,,Slayil Al Jahra District Street No. 625,21540, Al Jahra,Kuwait City,KW,,965 2457 4879,,29.3601096,47.5105905,456,1.jpg,2.jpg,3.jpg
Arts & Entertainment,Kuwait Zoo,,,,Airport Rd,34448,Kuwait City,Kuwait City,KW,,965 2473 0824,raisaquaculture.net,29.2986068,47.9588517,457,1.jpg,2.jpg,3.jpg
Arts & Entertainment,Fiesta Kuwait General Trading Company,,,,Al Muthanna St,21540,Kuwait City,Kuwait City,KW,,965 2263 2181,,29.3400304,47.9905249,458,1.jpg,2.jpg,3.jpg
Arts & Entertainment,PARTYLAND,,,,"Andalous,",14000,Kuwait City,Kuwait City,KW,,,partyland.com.kw,29.2988223,47.9260206,459,1.jpg,2.jpg,3.jpg
Arts & Entertainment,Party Corner,,,,Mohamad Bin Al Qasim St,34448,"Shuwaikh Industrial

",Kuwait City,KW,info@partycornerkw.com,965 9009 4004,partycornerkw.com,29.2986817,,460,1.jpg,2.jpg,3.jpg
Arts & Entertainment,Party City,,,,"Area 3 Block G Canada Dry, Shuwaikh Industrial, ",42188,Shuwaikh,Kuwait City,KW,Info@partycitykw.com,965 2482 5244,partycitykw.com,29.2986817,47.9260207,461,1.jpg,2.jpg,3.jpg
Arts & Entertainment,Partyland Salmiya,,,,"SYMPHONY MALL، Al Blajat St,",21540,Salmiya,Kuwait City,KW,,965 1872 789,partyland.com.kw,29.3462088,48.049669,462,1.jpg,2.jpg,3.jpg
Arts & Entertainment,Fiesta Kuwait,,,,Hamad Al-Mubarak St,39958,Kuwait City,Kuwait City,KW,,,,29.3364323,48.0386484,463,1.jpg,2.jpg,3.jpg
Arts & Entertainment,Party Box,,,,70 St,21540,Shuwaikh Industrial,Kuwait City,KW,sales@q8partybox.com,965 2492 0037,q8partybox.com,29.2986817,47.9260207,464,1.jpg,2.jpg,3.jpg
Arts & Entertainment,Balloony Land,,,,"6 St, Jahra Road",34448,Shuwaikh Industrial,Kuwait City,KW,,965 6554 9437,,29.33924,47.9052571,465,1.jpg,2.jpg,3.jpg
Arts & Entertainment,jhankaar dance academy,,,,Al Dhahak St,70050,Salmiya,Kuwait City,KW,,965 9992 8467,,29.2391707,47.9070269,466,1.jpg,2.jpg,3.jpg
Arts & Entertainment,Heart Beats School of Dance,,,,"92-98 28 St,",34448,Kuwait City,Kuwait City,KW,,965 9960 7245,,29.2390247,47.9070262,467,1.jpg,2.jpg,3.jpg
Arts & Entertainment,unique Spartans dance acedemy,,,,"2nd floor peninsula park behind r.k talreja college، 2 St. 1 Ln,",421003,Kuwait,Kuwait City,KW,,,,29.2394779,47.9070254,468,1.jpg,2.jpg,3.jpg
Arts & Entertainment,Prathibha School Of Dance,,,,26 St,21540,Kuwait City,Kuwait City,KW,,,,29.2394703,47.9070238,469,1.jpg,2.jpg,3.jpg
Arts & Entertainment,Trim Club,,,,Salwa block 6 street 4 building 285,,Kuwait City,Kuwait City,KW,info@trimclub.com,965 2566 2020,trimclub.com,29.2399235,47.9070231,470,1.jpg,2.jpg,3.jpg
Arts & Entertainment,Artistic Yoga & Pilates,,,,Al Qatami St. 6 Ln,21540,Kuwait City,Kuwait City,KW,,965 6646 3197,artisticyoganpilates.com,29.2403767,47.9070223,471,1.jpg,2.jpg,3.jpg
Arts & Entertainment,Nandhanam Auditorium Salmiya,,,,Yousef Al Bader St,34448,Kuwait City,Kuwait City,KW,info@nandhanam.net,965 555 90320,nandhanam.net,29.24083,47.9070215,472,1.jpg,2.jpg,3.jpg
Arts & Entertainment,Nandhanam Abu Halifa,,,,"Yousef Al Bader St,",14000,Salmiya,Kuwait City,KW,,,,29.2412832,47.9070207,473,1.jpg,2.jpg,3.jpg
Arts & Entertainment,The Little Gym,,,,41 105 St,34448,Jabriya,Kuwait City,KW,tlgkuwait@thelittlegym.com,965 2534 4844,tlgkuwait.com,29.2412832,47.9070207,474,1.jpg,2.jpg,3.jpg
Arts & Entertainment,pilates and more,,,,Baghdad St,14000,Kuwait City,Kuwait City,KW,,965 2571 0582,pilatesandmoreq8.com,29.2412832,47.9070207,475,1.jpg,2.jpg,3.jpg
Arts & Entertainment,Expression Institute for Private Training,,,,Ahmed Al Jaber St,21540,Kuwait City,Kuwait City,KW,info@expression.com.kw,965 2224 0177,expression.com.kw,29.2412832,47.9070207,476,1.jpg,2.jpg,3.jpg
Arts & Entertainment,The British School of Kuwait,,,,"Salwa, Building 214",13130,Kuwait City,Kuwait City,KW,tkk@bsk.edu.kw,965 1830 456,bsk.edu.kw,29.3010217,48.0625853,477,1.jpg,2.jpg,3.jpg
Arts & Entertainment,Cohiba Atmosphere Kuwait,,,,Arabian Gulf St,14000,Salmiya,Kuwait City,KW,,965 6998 0003,,29.3416483,,478,1.jpg,2.jpg,3.jpg
Arts & Entertainment,The Roof,,,,Salmiya,70050,Salmiya,Kuwait City,KW,,"965 1823 888


 


 
",facebook.com,29.3427566,48.0105798,479,1.jpg,2.jpg,3.jpg
Arts & Entertainment,Dasman Lounge Kuwait Airport,,,,Kuwait,34448,Kuwait City,Kuwait City,KW,,"965 2434 6666


 


 
",kasco.com.kw,29.2398132,47.9362377,480,1.jpg,2.jpg,3.jpg
Arts & Entertainment,KRH CAMP,,,,Kuwait,70050,Kuwait City,Kuwait City,KW,,,,29.3020985,47.8848928,481,1.jpg,2.jpg,3.jpg
Arts & Entertainment,Jazeera Lounge,,,,Farwaniyah، kuwait international airport,34448,Farwaniyah، ,Kuwait City,KW,feedback@jazeeraairways.com,965 2228 2040,jazeeraairways.com,29.240584,47.9377351,482,1.jpg,2.jpg,3.jpg
Arts & Entertainment,B Villa,,,,"Al-Ta'awen St, Villa # 7,","Salwa 25000, ",Kuwait City,Kuwait City,KW,,965 6699 1160,facebook.com,29.2417364,47.9070199,483,1.jpg,2.jpg,3.jpg
Arts & Entertainment,Yarmouk Club,,,,"18 2 St,",34448,Mahboula,Kuwait City,KW,,,,29.2421896,47.9070191,484,1.jpg,2.jpg,3.jpg
Arts & Entertainment,Texas Roadhouse,,,,Sidra Complex GF-03,70050,Mahboula,Kuwait City,KW,,965 2208 1302,texasroadhouse.com,29.2426428,47.9070183,485,1.jpg,2.jpg,3.jpg
Arts & Entertainment,Sports Bar,,,,"Sports Bar,",1033,Kuwait City,Kuwait City,KW,,965 2459 0000,millenniumhotels.com,29.364261,47.5063843,486,1.jpg,2.jpg,3.jpg
Arts & Entertainment,Made Restro,,,,"Burj Jasem, Floor 28، Al-Soor St",21540,Al Kuwayt,Kuwait City,KW,,965 2249 9101,,29.2435491,47.9070167,487,1.jpg,2.jpg,3.jpg
Arts & Entertainment,Genki Bar And Pub,,,,Al-Shuhada St,21540,Kuwait City,Kuwait City,KW,,965 2299 7933,genkisushi.com.kw,29.2440023,47.9070159,488,1.jpg,2.jpg,3.jpg
Arts & Entertainment,Falcon Billiards Lounge,,,,,70050,"Kuwait City,",Kuwait City,KW,,965 6900 6613,,29.2444555,47.9070151,489,1.jpg,2.jpg,3.jpg
Arts & Entertainment,Pearl Lounge Kuwait,,,,Kuwait,14000,"Kuwait City,",Kuwait City,KW,kuwait@pearlassist.com,"965 2437 2304
",pearlassist.com,29.2449087,47.9070143,499,1.jpg,2.jpg,3.jpg
Arts & Entertainment,Kuwait Magic Beach,,,,Abu Halifa,14000,"Kuwait City,",Kuwait City,KW,,,,29.2453618,47.9070135,500,1.jpg,2.jpg,3.jpg
Arts & Entertainment,Agt kuwait,,,,3 33 St,21540,"Kuwait City,",Kuwait City,KW,sales@agtkuwait.com,965 2374 0294,agtkuwait.com,29.245815,47.9070127,501,1.jpg,2.jpg,3.jpg
Arts & Entertainment,Comics Kuwait,,,,1 Tunisia St,21540,"Kuwait City,",Kuwait City,KW,,,,29.3419406,48.0294239,502,1.jpg,2.jpg,3.jpg
Arts & Entertainment,SPECTRAWIDE BOOKSTORE,,,,"Shop No. 16, Fashion Ways (Chicken Tikka Complex), above Mothercare/BHS",22093,SALMIYA,Kuwait City,KW,,965 505 44244,business.site,29.3420131,48.0294239,503,1.jpg,2.jpg,3.jpg
Arts & Entertainment,Hawally Park,,,,Tunisia St,14000,Kuwait City,Kuwait City,KW,Kuwait1000@gmail.com,965 2261 2009,hawallypark.com,29.3496764,47.7239779,504,1.jpg,2.jpg,3.jpg
Arts & Entertainment,Boulevard,,,,Block 8، Salmiya,39958,Kuwait City,Kuwait City,KW,,965 2571 6376,boulevard.com.kw,29.3501286,47.7239771,506,1.jpg,2.jpg,3.jpg
Arts & Entertainment,المدينة الترفيهية,,,,Doha Rd,21540,Kuwait City,Kuwait City,KW,pr@tec.com.kw,965 1806 806,kuwaittourism.com,29.3510331,47.7239755,507,1.jpg,2.jpg,3.jpg
Arts & Entertainment,Diwan Marafie,,,,Kuwait,39958,Kuwait City,Kuwait City,KW,info@diwanmarafie.com,965 22 555 881,diwanmarafie.com,29.36764,48.004573,508,1.jpg,2.jpg,3.jpg
Arts & Entertainment,Show Shoes,,,,"Salah Aldin Al Ayoubi St,",39958,Kuwait City,Kuwait City,KW,,,,29.3218073,47.9372267,509,1.jpg,2.jpg,3.jpg
Arts & Entertainment,Kuwait International Boat Show,,,,7 Fahad Al-Salem Street,21540,Kuwait City,Kuwait City,KW,o.alsalem@broadcastitkw.com,965 6066 5544,kibs-kw.com,29.3218073,47.9372267,510,1.jpg,2.jpg,3.jpg
Arts & Entertainment,Ministry of Information,,,,Al-Sour Street Media Complex،,21540,Kuwait City,Kuwait City,KW,,965 2232 6000,media.gov.kw,29.3220701,47.9372265,511,1.jpg,2.jpg,3.jpg
Arts & Entertainment,ALRAI TV,,,,Zain Company Parking Lot,39958,Shuwaikh,Kuwait City,KW,,965 2495 3000,alrai.tv,29.3220701,47.9372265,512,1.jpg,2.jpg,3.jpg
Arts & Entertainment,Reem Al Kuwait,,,,Hawally,70050,Kuwait City,Kuwait City,KW,,965 2265 2386,,29.3220701,47.9372265,513,1.jpg,2.jpg,3.jpg
Arts & Entertainment,Alshahed tv,,,,6 Al Muthanna St,39958,Kuwait City,Kuwait City,KW,,,alshahed.tv,29.3220701,47.9372265,514,1.jpg,2.jpg,3.jpg
Arts & Entertainment,TVS Travels & Cargo,,,,Block 2، Al Kuwayt,70050,Kuwait City,Kuwait City,KW,info@easytaxikuwait.com,965 511 16082,easytaxikuwait.com,29.3220701,47.9372265,515,1.jpg,2.jpg,3.jpg
Arts & Entertainment,Kuwait Tele Sen,,,,34 28 St,70050,Kuwait City,Kuwait City,KW,,965 1808 808,kuwaitteleseen.com,29.202564,47.980582,516,1.jpg,2.jpg,3.jpg
Arts & Entertainment,TVS INT'L TRAVELS & TOURS CO. W.L.L,,,,71 St,21540,Kuwait City,Kuwait City,KW,info@tvshydergroup.com,22473179,tvshydergroup.com,29.3220701,47.9372265,517,1.jpg,2.jpg,3.jpg
Arts & Entertainment,Al Hareer Media City,,,,Kuwait Free Trade Zone,14000,Kuwait City,Kuwait City,KW,,965 2267 6302,,29.3220701,47.9372265,518,1.jpg,2.jpg,3.jpg
Arts & Entertainment,X-cite by Alghanim Electronics,,,,Al-Fadalah Tower,13003,Kuwait City,Kuwait City,KW,,965 1803 535,xcite.com,29.3220701,47.9372265,519,1.jpg,2.jpg,3.jpg
Arts & Entertainment,Maali Tv Channel,,,,Jahra Rd,34448,Kuwait City,Kuwait City,KW,,965 2486 7423,m3ali.tv,29.3220701,47.9372265,520,1.jpg,2.jpg,3.jpg
Arts & Entertainment,TVS travels khaitan,,,,Khaitan,39958,Kuwait City,Kuwait City,KW,,,,29.3220701,47.9372265,521,1.jpg,2.jpg,3.jpg
Arts & Entertainment,Mazda Kuwait Showroom,,,,Kuwait,14000,Kuwait City,Kuwait City,KW,,965 1820 888,"kaico.net


 
",29.2358236,47.7548098,522,1.jpg,2.jpg,3.jpg
Arts & Entertainment,Chevrolet Alghanim Showroom Safat - AlRai,,,,4th Ring Road، Safat Alghanim,,Kuwait City,Kuwait City,KW,,965 1800 022,chevroletalghanim.com,29.2362769,47.754809,523,1.jpg,2.jpg,3.jpg
Arts & Entertainment,Nissan Showroom - Al Babtain,,,,"4, Kuwait",34448,Kuwait City,Kuwait City,KW,,965 1804 888,nissankuwait.com,29.2367301,47.7548082,524,1.jpg,2.jpg,3.jpg
Arts & Entertainment,Toyota New Cars Showroom - Al Ahmadi,,,,344th Street,0,Kuwait City,Kuwait City,KW,,965 1803 803,toyota.com.kw,29.2371834,47.7548074,525,1.jpg,2.jpg,3.jpg
Arts & Entertainment,Alshaya Trading Showroom Tunis Street Luxury,,,,Tunis St,13043,Kuwait City,Kuwait City,KW,info@alshayaenterprises.com,965 6640 3457,alshayatrading.com,29.2376366,47.7548066,526,1.jpg,2.jpg,3.jpg
Arts & Entertainment,KAICO-USED CAR SHOWROOM,,,,4,13043,Kuwait City,Kuwait City,KW,mail@kaico.net,965 24733334,kaico.net,29.2380899,47.7548058,527,1.jpg,2.jpg,3.jpg
Arts & Entertainment,Chevrolet Alghanim Showroom,,,,152/53/54/55 Fahaheel Industrial Area,21540,Kuwait City,Kuwait City,KW,,965 1800 022,ar.chevroletalghanim.com,29.2385431,47.754805,528,1.jpg,2.jpg,3.jpg
Arts & Entertainment,Porsche Showroom,,,,Al Rai Block 1 bldg.,13043,Kuwait City,Kuwait City,KW,,965 1870 870,porsche.com,29.2389963,47.7548042,529,1.jpg,2.jpg,3.jpg
Arts & Entertainment,Land Rover Approved Kuwait Showroom,,,,"Street 12, Plot 99 Al Shuwaikh Industrial Area",21540,Kuwait City,Kuwait City,KW,lr.enquiries@aas.com.kw,965 1846 464,landroverkuwait.com,29.2394495,47.7548034,530,1.jpg,2.jpg,3.jpg
Arts & Entertainment,Citroen Showroom - Al Babtain,,,,9 St,39958,Kuwait City,Kuwait City,KW,,965 1804 888,citroen.com,29.240356,47.7548018,531,1.jpg,2.jpg,3.jpg
Arts & Entertainment,Land Rover Kuwait Showroom,,,,"Airport Road 55 Opposite Kaifan Telecommunication Center Al Shuwaikh,",21540,Kuwait City,Kuwait City,KW,lr.enquiries@aas.com.kw,965 1846 464,"
landroverkuwait.com",29.2408092,47.754801,532,1.jpg,2.jpg,3.jpg
Arts & Entertainment,"Chevrolet Alghanim Showroom
معرض شفروليه الغانم",,,,152/53/54/55 Fahaheel Industrial Area,,Kuwait City,Kuwait City,KW,,965 1800 022,ar.chevroletalghanim.com,29.2417156,47.7547994,533,1.jpg,2.jpg,3.jpg
Arts & Entertainment,Mercedes-Benz Kuwait ,,,,Jahra Road,70050,Kuwait City,Kuwait City,KW,,965 2495 0000,mercedesbenzme.com,29.2344639,47.7548122,534,1.jpg,2.jpg,3.jpg
Arts & Entertainment,Mediamax Recording Studio,,,,Road No. 5,21540,Kuwait City,Kuwait City,KW,info@mediamaxstudio.com,965 6651 6959,sajanmediamax.com,29.2155687,47.8928807,535,1.jpg,2.jpg,3.jpg
Arts & Entertainment,سالمين اللالات الموسيقية,,,,1-5 74 St,39958,Kuwait City,Kuwait City,KW,,965 2473 0093,salmeenmusic.com,29.2155687,47.8928807,536,1.jpg,2.jpg,3.jpg
Arts & Entertainment,Cinescape Sharq,,,,,13043,Kuwait City,Kuwait City,KW,,965 1803 456,cinescape.com.kw,29.3762465,47.9643571,537,1.jpg,2.jpg,3.jpg
Arts & Entertainment,Q8 Comedy Club,,,,Qusor,21540,Kuwait City,Kuwait City,KW,,965 9094 0405,,29.2187091,48.0725752,538,1.jpg,2.jpg,3.jpg
Arts & Entertainment,Kalabhavan Music Training Institute,,,,"11 6 St, Salmiya",21540,Kuwait City,Kuwait City,KW,,965 2565 8204,,29.33799,48.0697525,539,1.jpg,2.jpg,3.jpg
Arts & Entertainment,British Council,,,,"13004,، Essa Abdulla Bahman St",,Kuwait City,Kuwait City,KW,,965 2205 2300,britishcouncil.com.kw,29.3579782,47.9792961,540,1.jpg,2.jpg,3.jpg
Arts & Entertainment,Institut français du Koweït / French Institute of Kuwait,,,,"Villa 41، 6 St, Jabriya",39958,Kuwait City,Kuwait City,KW,info@institutfrancais-koweit.com,965 2232 3031,institutfrancais-koweit.com,29.318598,48.029902,541,1.jpg,2.jpg,3.jpg
Arts & Entertainment,MILSIM Airsoft Gaming Club,,,,Kuwait,39958,Kuwait City,Kuwait City,KW,,965 9674 2674,,29.2286844,47.9073939,542,1.jpg,2.jpg,3.jpg
Arts & Entertainment,SHIFT Productions,,,,"Star Tower, 6A Abdulla Al Mubarak St",39958,Kuwait City,Kuwait City,KW,,965 510 57999,shiftkw.com,29.3117842,46.4142857,543,1.jpg,2.jpg,3.jpg
Arts & Entertainment,Al Shaheed Park Phase 2,,,,Kuwait City,13043,Kuwait City,kuwait,KW,info@alshaheedpark.com,965 - 22461267,alshaheedpark.com,29.3264377,47.9277356,544,1.jpg,2.jpg,3.jpg
Arts & Entertainment,Center of the Art,,,,"Block 1 , Plot 21, Al Usaimi Complex، 6th Street, Shuwaikh Industrial,",39958,Kuwait City,kuwait,KW,info@artkuwait.com.kw,965 2228 2130,artkuwait.com.kw,29.3578079,47.9408071,545,1.jpg,2.jpg,3.jpg
Arts & Entertainment,مسرح نادي القادسية,,,,Hawally,21540,Kuwait City,kuwait,KW,,,,29.3578079,47.9408071,546,1.jpg,2.jpg,3.jpg
Arts & Entertainment,Action Consultancy Bureau,,,,Kuwait Free Trade Zone,39958,Kuwait City,kuwait,KW,info@actionkuwait.com,965 2224 7530,actionkuwait.com,29.3578079,47.9408071,547,1.jpg,2.jpg,3.jpg
Arts & Entertainment,Action Real Estate Company,,,,Kuwait Free Trade Zone,39958,Kuwait City,kuwait,KW,arec@actionkuwait.com,965 2224 7500,actionrealestateco.com,29.3578079,47.9408071,548,1.jpg,2.jpg,3.jpg
"Arts & Entertainment
",ALGAS Events,,,,"Mubarak Al Kabeer Street, Kuwait City, Al Asimah، P.O.BOX 5044, Safat",21540,"Kuwait City
","kuwait
","KW
",,965 2246 1445,,29.3578079,47.9408071,549,1.jpg,2.jpg,3.jpg
"Arts & Entertainment
",Cozmo Entertainment,,,,Abdulla Al Mubarak St,39958,"Kuwait City
","kuwait
","KW
",info@cozmogroup.com,965 2574 4975,cozmogroup.com,29.3578079,47.9408071,550,1.jpg,2.jpg,3.jpg
"Arts & Entertainment
",K-lue Kuwait,,,,"Panasonic Tower, 80",39958,"Kuwait City
","kuwait
","KW
",,965 9998 2286,,29.3578079,47.9408071,551,1.jpg,2.jpg,3.jpg
"Arts & Entertainment
",Al Bahhar Entertainment Historical Village,,,,Arabian Gulf St,21540,"Kuwait City
","kuwait
","KW
",,965 2240 3132,,29.3578079,47.9408071,552,1.jpg,2.jpg,3.jpg
"Arts & Entertainment
",Entertainment City,,,,"Doha Rd, Kuwait City",39958,"Kuwait City
","kuwait
","KW
",pr@tec.com.kw,965 1806 806,"
kuwaittourism.com",29.3578079,",47.9408071",553,1.jpg,2.jpg,3.jpg
"Arts & Entertainment
",Papa John's Pizza Doha Road,,,,"Kuwait Entertainment City, Doha Rd, Al Asimah Governate",39958,"Kuwait City
","kuwait
","KW
",,965 1827 272,papajohns.com.kw,29.3578079,47.9408071,554,1.jpg,2.jpg,3.jpg
"Arts & Entertainment
",Doha Cricket grounds,,,,Kuwait City,21540,"Kuwait City
","kuwait
","KW
",,,,29.3578079,47.9408071,555,1.jpg,2.jpg,3.jpg
"Arts & Entertainment
",Meysan Partners,,,,"Jaber Al-Mubarak St,",21540,"Kuwait City
","kuwait
","KW
",,"965 2205 1000


 


 
","meysan.com


 
",29.3810729,47.989012,556,1.jpg,2.jpg,3.jpg
"Arts & Entertainment
",INTERNATIONAL LEGAL GROUP ,,,,"Altijaria tower, 12th floor، Soor St",34448,"Kuwait City
","kuwait
","KW
",,965 2242 5157,ilg.com.kw,29.3702652,47.9881324,557,1.jpg,2.jpg,3.jpg
"Arts & Entertainment
",Global Technology Company W.L.L,,,,18th Floor Al-Jon Center Fahad Al-Salem Street Safat-,24165,"Kuwait City
","kuwait
","KW
",INFO@GTCKW.COM,"965 2290 2324


 


 
",gtckw.com,29.2562292,47.8133906,558,1.jpg,2.jpg,3.jpg
"Arts & Entertainment
",Vigor Enterprise,,,,"Al-Gas Tower, 13th Floor, 24 Ahmad Al Jaber Street",13043,"Kuwait City
","kuwait
","KW
",info@vigorevents.com,965 2246 1445,vigorevents.com,29.300022,46.4144351,559,1.jpg,2.jpg,3.jpg
"Arts & Entertainment
",Forward Sports Event Management,,,,Kuwait Free Trade Zone,13043,"Kuwait City
","kuwait
","KW
",info@letsgoforward.com,965 9996 4794,letsgoforward.com,29.2954489,46.414384,560,1.jpg,2.jpg,3.jpg
"Arts & Entertainment
",Amirah AlShaalan Events Co.,,,,"Ali Al-Salim Street, Building 106, Awtad Restaurant Complex, Floor 1, Office 13, Qibla",14000,"Kuwait City
","kuwait
","KW
",events@amirahalshaalan.com,965 550 51127,amirahalshaalan.com,29.290877,46.4143328,561,1.jpg,2.jpg,3.jpg
"Arts & Entertainment
",Kuwait Palace for celebrations and events,,,,"3843 السعادات، An Nahdah, Hafar Al Batin",39958,"Kuwait City
","kuwait
","KW
",,39958 8952,,29.2863061,46.4142817,562,1.jpg,2.jpg,3.jpg
"Arts & Entertainment
",Millennium Hotel and Convention Centre Kuwait,,,,"4th Ring Road, Salmiya, Abou Thar Al Ghafari St

",29370,"Kuwait City
","kuwait
","KW
",,"965 2205 0505


 


 
",millenniumhotels.com,29.2771679,46.4141793,563,1.jpg,2.jpg,3.jpg
"Arts & Entertainment
",Kuwait International Fairground,,,,"Street 1, Mubarak Al-Abdullah",39958,"Kuwait City
","kuwait
","KW
",info@kif.net,965 2538 7100,kif.net,29.2680341,",46.414077",564,1.jpg,2.jpg,3.jpg
"Arts & Entertainment
",Den,,,,27 Ahmad Al Jaber St,39958,"Kuwait City
","kuwait
","KW
",,965 6070 7060,den-gallery.com,29.3096248,47.925611,565,1.jpg,2.jpg,3.jpg
"Arts & Entertainment
",Kuwait Airways,,,,"Abadan, Khuzestan Province",21540,"Kuwait City
","kuwait
","KW
",,,kuwaitairways.com,29.3072083,46.4142345,566,1.jpg,2.jpg,3.jpg
"Arts & Entertainment
",Comic Con ticket selling point,,,,Mubarak Al-Abdullah,39958,"Kuwait City
","kuwait
","KW
",info@yhkevets.com,65566046,http://comicconkuwait.com/,29.3026334,46.4141834,567,1.jpg,2.jpg,3.jpg
"Arts & Entertainment
",KTM KUWAIT NEW SHOWROOM,,,,Shuwaikh Industrial,39958,"Kuwait City
","kuwait
","KW
",,965 2492 0049,,29.2344639,47.7548122,568,1.jpg,2.jpg,3.jpg
"Arts & Entertainment
",Kia Motors Showroom National Agencies Group,,,,Block 3، 4th Ring Road، Al Rai,34448,"Kuwait City
","kuwait
","KW
",,965 1805 008,kiamotorskuwait.com,29.2344639,47.7548122,569,1.jpg,2.jpg,3.jpg
"Arts & Entertainment
",Changan kuwait showroom,,,,"Mohamad Bin Al Qasim St,",13043,"Kuwait City
","kuwait
","KW
",,965 2496 8833,changankuwait.com,29.2380899,47.7548058,570,1.jpg,2.jpg,3.jpg
"Arts & Entertainment
",Bose Service Center,,,,"401-389 29 St,",34448,"Kuwait City

","kuwait

",KW,,965 2472 0631,,29.3104853,47.9076262,571,1.jpg,2.jpg,3.jpg
"Arts & Entertainment
",Bang & Olufsen,,,,"Salem Mubarak Street, Symphony Mall",13043,"Kuwait City

","kuwait

",KW,,965 2577 0800,bang-olufsen.com,29.356122,47.9915951,572,1.jpg,2.jpg,3.jpg
"Arts & Entertainment
",Land Rover Kuwait,,,,"Ali Alghanim & Sons Automotive Company, Airport Road 55, Opposite Kaifan Telecommunication Center, ",21540,"Kuwait City

","kuwait

",KW,,965 1846 464,alialghanimsons.com.kw,29.3565434,47.991595,573,1.jpg,2.jpg,3.jpg
"Arts & Entertainment
",Green Island,,,,Green Island Arabian Gulf Street,13043,"Kuwait City

","kuwait

",KW,pr@tec.com.kw,965 2257 3542,kuwaittourism.com,29.3575267,47.9915946,574,1.jpg,2.jpg,3.jpg
"Arts & Entertainment
",Aljabriya Super Market,,,,Kuwait City,39958,"Kuwait City

","kuwait

",KW,,965 2533 5327,,29.3578077,47.9915945,575,1.jpg,2.jpg,3.jpg
"Arts & Entertainment
",Shuwaikh Market,,,,"5th Street, Shuwaikh Industrial",21540,"Kuwait City

","kuwait

",KW,,965 2221 6944,shuwaikhmarket.com,29.3418413,47.8655243,576,1.jpg,2.jpg,3.jpg
"Arts & Entertainment
",Kuwaiti Union of Farmers Market,,,,Road No. 50,13043,"Kuwait City

","kuwait

",KW,,,,29.2993411,47.8254109,577,1.jpg,2.jpg,3.jpg
"Arts & Entertainment
",Central Fish Market,,,,Arabian Gulf St,39958,"Kuwait City

","kuwait

",KW,,965 2225 4022,,29.3823793,48.0384785,578,1.jpg,2.jpg,3.jpg
"Arts & Entertainment
",VIP Super Market,,,,Kuwait Free Trade Zone,21540,"Kuwait City

","kuwait

",KW,,,,29.3533789,47.8338162,579,1.jpg,2.jpg,3.jpg